{
"type": "FeatureCollection",
                                                                                
"features": [
{ "type": "Feature", "id": 1, "properties": { "geoid": 1, "latitude": 43.86062, "longitude": 4.36232, "good url": "http:\/\/directory.occupy.net\/occupation\/fr\/occupy-nimes-indignes-de-nimes", "fetchurl": 0, "name": "Occupy Nimes - Indignes de Nimes" }, "geometry": { "type": "Point", "coordinates": [ 4.36232, 43.86062 ] } }
,
{ "type": "Feature", "id": 2, "properties": { "geoid": 2, "latitude": 35.488695, "longitude": -120.669064, "good url": "http:\/\/directory.occupy.net\/occupation\/us\/ca\/occupy-atascadero", "fetchurl": 0, "name": "Occupy Atascadero" }, "geometry": { "type": "Point", "coordinates": [ -120.669064, 35.488695 ] } }
,
{ "type": "Feature", "id": 3, "properties": { "geoid": 3, "latitude": 38.579065, "longitude": -121.491014, "good url": "http:\/\/directory.occupy.net\/occupation\/us\/ca\/occupy-sacramento", "fetchurl": 0, "name": "Occupy Sacramento" }, "geometry": { "type": "Point", "coordinates": [ -121.491014, 38.579065 ] } }
,
{ "type": "Feature", "id": 4, "properties": { "geoid": 4, "latitude": 39.468255, "longitude": -74.522926, "good url": "http:\/\/directory.occupy.net\/occupation\/us\/nj\/occupy-absecon", "fetchurl": 0, "name": "Occupy Absecon" }, "geometry": { "type": "Point", "coordinates": [ -74.522926, 39.468255 ] } }
,
{ "type": "Feature", "id": 5, "properties": { "geoid": 5, "latitude": -81.5, "longitude": 0.0, "good url": "http:\/\/directory.occupy.net\/occupation\/aq\/occupy-mcmurdo-station", "fetchurl": 0, "name": "Occupy McMurdo Station" }, "geometry": { "type": "Point", "coordinates": [ 0.0, -81.5 ] } }
,
{ "type": "Feature", "id": 6, "properties": { "geoid": 6, "latitude": -8.81241, "longitude": 13.23503, "good url": "http:\/\/directory.occupy.net\/occupation\/ao\/occupy-luanda", "fetchurl": 0, "name": "Occupy Luanda" }, "geometry": { "type": "Point", "coordinates": [ 13.23503, -8.81241 ] } }
,
{ "type": "Feature", "id": 7, "properties": { "geoid": 7, "latitude": 42.671805, "longitude": 21.162365, "good url": "http:\/\/directory.occupy.net\/occupation\/al\/occupy-prishtina", "fetchurl": 0, "name": "Occupy Prishtina" }, "geometry": { "type": "Point", "coordinates": [ 21.162365, 42.671805 ] } }
,
{ "type": "Feature", "id": 8, "properties": { "geoid": 8, "latitude": 36.149745, "longitude": -95.993334, "good url": "http:\/\/directory.occupy.net\/occupation\/us\/ok\/occupy-tulsa", "fetchurl": 0, "name": "Occupy Tulsa" }, "geometry": { "type": "Point", "coordinates": [ -95.993334, 36.149745 ] } }
,
{ "type": "Feature", "id": 9, "properties": { "geoid": 9, "latitude": 36.171915, "longitude": -115.139974, "good url": "http:\/\/directory.occupy.net\/occupation\/us\/nv\/occupy-las-vegas", "fetchurl": 0, "name": "Occupy Las Vegas" }, "geometry": { "type": "Point", "coordinates": [ -115.139974, 36.171915 ] } }
,
{ "type": "Feature", "id": 10, "properties": { "geoid": 10, "latitude": 52.632603, "longitude": 4.752342, "good url": "http:\/\/directory.occupy.net\/occupation\/nl\/occupy-alkmaar", "fetchurl": 0, "name": "Occupy Alkmaar" }, "geometry": { "type": "Point", "coordinates": [ 4.752342, 52.632603 ] } }
,
{ "type": "Feature", "id": 11, "properties": { "geoid": 11, "latitude": 21.496565, "longitude": -104.883373, "good url": "http:\/\/directory.occupy.net\/occupation\/mx\/nayarit\/occupy-tepic", "fetchurl": 0, "name": "Occupy Tepic" }, "geometry": { "type": "Point", "coordinates": [ -104.883373, 21.496565 ] } }
,
{ "type": "Feature", "id": 12, "properties": { "geoid": 12, "latitude": 35.163889, "longitude": 33.348085, "good url": "http:\/\/directory.occupy.net\/occupation\/cy\/occupy-buffer-zone", "fetchurl": 0, "name": "Occupy Buffer Zone" }, "geometry": { "type": "Point", "coordinates": [ 33.348085, 35.163889 ] } }
,
{ "type": "Feature", "id": 13, "properties": { "geoid": 13, "latitude": 42.199795, "longitude": -88.187859, "good url": "http:\/\/directory.occupy.net\/occupation\/us\/il\/occupy-barrington-il", "fetchurl": 0, "name": "Occupy Barrington IL" }, "geometry": { "type": "Point", "coordinates": [ -88.187859, 42.199795 ] } }
,
{ "type": "Feature", "id": 14, "properties": { "geoid": 14, "latitude": 56.04847, "longitude": 12.689928, "good url": "http:\/\/directory.occupy.net\/occupation\/se\/occupy-helsingborg", "fetchurl": 0, "name": "Occupy Helsingborg" }, "geometry": { "type": "Point", "coordinates": [ 12.689928, 56.04847 ] } }
,
{ "type": "Feature", "id": 15, "properties": { "geoid": 15, "latitude": 44.47592, "longitude": -73.213234, "good url": "http:\/\/directory.occupy.net\/occupation\/us\/vt\/occupy-burlington-vt", "fetchurl": 0, "name": "Occupy Burlington VT" }, "geometry": { "type": "Point", "coordinates": [ -73.213234, 44.47592 ] } }
,
{ "type": "Feature", "id": 16, "properties": { "geoid": 16, "latitude": 50.84983, "longitude": 5.688275, "good url": "http:\/\/directory.occupy.net\/occupation\/nl\/occupy-maastricht", "fetchurl": 0, "name": "Occupy Maastricht" }, "geometry": { "type": "Point", "coordinates": [ 5.688275, 50.84983 ] } }
,
{ "type": "Feature", "id": 17, "properties": { "geoid": 17, "latitude": 35.1893, "longitude": -114.057839, "good url": "http:\/\/directory.occupy.net\/occupation\/us\/az\/occupy-kingman", "fetchurl": 0, "name": "Occupy Kingman" }, "geometry": { "type": "Point", "coordinates": [ -114.057839, 35.1893 ] } }
,
{ "type": "Feature", "id": 18, "properties": { "geoid": 18, "latitude": 35.08418, "longitude": -106.648639, "good url": "http:\/\/directory.occupy.net\/occupation\/us\/nm\/unoccupy-albuquerque", "fetchurl": 0, "name": "(Un)Occupy Albuquerque" }, "geometry": { "type": "Point", "coordinates": [ -106.648639, 35.08418 ] } }
,
{ "type": "Feature", "id": 19, "properties": { "geoid": 19, "latitude": 53.19732, "longitude": 5.79257, "good url": "http:\/\/directory.occupy.net\/occupation\/nl\/occupy-leeuwarden", "fetchurl": 0, "name": "Occupy Leeuwarden" }, "geometry": { "type": "Point", "coordinates": [ 5.79257, 53.19732 ] } }
,
{ "type": "Feature", "id": 20, "properties": { "geoid": 20, "latitude": 42.266628, "longitude": -71.760986, "good url": "http:\/\/directory.occupy.net\/occupation\/us\/ma\/occupy-worcester", "fetchurl": 0, "name": "Occupy Worcester" }, "geometry": { "type": "Point", "coordinates": [ -71.760986, 42.266628 ] } }
,
{ "type": "Feature", "id": 21, "properties": { "geoid": 21, "latitude": 45.78079, "longitude": 3.119495, "good url": "http:\/\/directory.occupy.net\/occupation\/fr\/clermont-ferrand", "fetchurl": 0, "name": "Clermont-Ferrand" }, "geometry": { "type": "Point", "coordinates": [ 3.119495, 45.78079 ] } }
,
{ "type": "Feature", "id": 22, "properties": { "geoid": 22, "latitude": 51.841205, "longitude": 5.85759, "good url": "http:\/\/directory.occupy.net\/occupation\/nl\/occupy-nijmegen", "fetchurl": 0, "name": "Occupy Nijmegen" }, "geometry": { "type": "Point", "coordinates": [ 5.85759, 51.841205 ] } }
,
{ "type": "Feature", "id": 23, "properties": { "geoid": 23, "latitude": 52.152325, "longitude": 5.386085, "good url": "http:\/\/directory.occupy.net\/occupation\/nl\/occupy-amersfoort", "fetchurl": 0, "name": "Occupy Amersfoort" }, "geometry": { "type": "Point", "coordinates": [ 5.386085, 52.152325 ] } }
,
{ "type": "Feature", "id": 24, "properties": { "geoid": 24, "latitude": 36.146629, "longitude": -86.802906, "good url": "http:\/\/directory.occupy.net\/occupation\/us\/tn\/occupy-vanderbilt", "fetchurl": 0, "name": "Occupy Vanderbilt" }, "geometry": { "type": "Point", "coordinates": [ -86.802906, 36.146629 ] } }
,
{ "type": "Feature", "id": 25, "properties": { "geoid": 25, "latitude": 28.054569, "longitude": -82.412955, "good url": "http:\/\/directory.occupy.net\/occupation\/us\/fl\/occupy-university-south-florida", "fetchurl": 0, "name": "Occupy University of South Florida" }, "geometry": { "type": "Point", "coordinates": [ -82.412955, 28.054569 ] } }
,
{ "type": "Feature", "id": 26, "properties": { "geoid": 26, "latitude": 48.1968, "longitude": 16.3337, "good url": "http:\/\/directory.occupy.net\/occupation\/at\/occupy-vienna", "fetchurl": 0, "name": "Occupy Vienna" }, "geometry": { "type": "Point", "coordinates": [ 16.3337, 48.1968 ] } }
,
{ "type": "Feature", "id": 27, "properties": { "geoid": 27, "latitude": 42.331177, "longitude": -83.115663, "good url": "http:\/\/directory.occupy.net\/occupation\/us\/mi\/occupy-detroit", "fetchurl": 0, "name": "Occupy Detroit" }, "geometry": { "type": "Point", "coordinates": [ -83.115663, 42.331177 ] } }
,
{ "type": "Feature", "id": 28, "properties": { "geoid": 28, "latitude": 34.729135, "longitude": -86.584979, "good url": "http:\/\/directory.occupy.net\/occupation\/us\/al\/occupy-huntsville", "fetchurl": 0, "name": "Occupy Huntsville" }, "geometry": { "type": "Point", "coordinates": [ -86.584979, 34.729135 ] } }
,
{ "type": "Feature", "id": 29, "properties": { "geoid": 29, "latitude": 40.23447, "longitude": -74.295036, "good url": "http:\/\/directory.occupy.net\/occupation\/us\/nj\/occupy-freehold", "fetchurl": 0, "name": "Occupy Freehold" }, "geometry": { "type": "Point", "coordinates": [ -74.295036, 40.23447 ] } }
,
{ "type": "Feature", "id": 30, "properties": { "geoid": 30, "latitude": 43.177051, "longitude": -78.826042, "good url": "http:\/\/directory.occupy.net\/occupation\/us\/ny\/occupy-lockport", "fetchurl": 0, "name": "Occupy Lockport" }, "geometry": { "type": "Point", "coordinates": [ -78.826042, 43.177051 ] } }
,
{ "type": "Feature", "id": 31, "properties": { "geoid": 31, "latitude": 33.775045, "longitude": -84.386714, "good url": "http:\/\/directory.occupy.net\/occupation\/us\/ga\/occupy-atlanta-0", "fetchurl": 0, "name": "Occupy Atlanta" }, "geometry": { "type": "Point", "coordinates": [ -84.386714, 33.775045 ] } }
,
{ "type": "Feature", "id": 32, "properties": { "geoid": 32, "latitude": 45.898784, "longitude": 6.128889, "good url": "http:\/\/directory.occupy.net\/occupation\/fr\/occupy-annecy", "fetchurl": 0, "name": "Occupy Annecy" }, "geometry": { "type": "Point", "coordinates": [ 6.128889, 45.898784 ] } }
,
{ "type": "Feature", "id": 33, "properties": { "geoid": 33, "latitude": 42.222694, "longitude": -72.640488, "good url": "http:\/\/directory.occupy.net\/occupation\/us\/ma\/occupy-hcc", "fetchurl": 0, "name": "Occupy HCC" }, "geometry": { "type": "Point", "coordinates": [ -72.640488, 42.222694 ] } }
,
{ "type": "Feature", "id": 34, "properties": { "geoid": 34, "latitude": 35.830734, "longitude": -85.978745, "good url": "http:\/\/directory.occupy.net\/occupation\/tn\/occupy-sidi-bouzid", "fetchurl": 0, "name": "Occupy Sidi Bouzid" }, "geometry": { "type": "Point", "coordinates": [ -85.978745, 35.830734 ] } }
,
{ "type": "Feature", "id": 35, "properties": { "geoid": 35, "latitude": 39.607508, "longitude": -105.004391, "good url": "http:\/\/directory.occupy.net\/occupation\/us\/co\/occupy-littleton-co", "fetchurl": 0, "name": "Occupy Littleton CO" }, "geometry": { "type": "Point", "coordinates": [ -105.004391, 39.607508 ] } }
,
{ "type": "Feature", "id": 36, "properties": { "geoid": 36, "latitude": 44.307104, "longitude": -71.77487, "good url": "http:\/\/directory.occupy.net\/occupation\/us\/nh\/occupy-littleton-nh", "fetchurl": 0, "name": "Occupy Littleton NH" }, "geometry": { "type": "Point", "coordinates": [ -71.77487, 44.307104 ] } }
,
{ "type": "Feature", "id": 37, "properties": { "geoid": 37, "latitude": 46.681615, "longitude": -68.015377, "good url": "http:\/\/directory.occupy.net\/occupation\/us\/me\/occupy-aroostook", "fetchurl": 0, "name": "Occupy Aroostook" }, "geometry": { "type": "Point", "coordinates": [ -68.015377, 46.681615 ] } }
,
{ "type": "Feature", "id": 38, "properties": { "geoid": 38, "latitude": 43.867935, "longitude": -83.978373, "good url": "http:\/\/directory.occupy.net\/occupation\/us\/mi\/occupy-the-tri", "fetchurl": 0, "name": "Occupy the TRI" }, "geometry": { "type": "Point", "coordinates": [ -83.978373, 43.867935 ] } }
,
{ "type": "Feature", "id": 39, "properties": { "geoid": 39, "latitude": 21.980066, "longitude": -160.062281, "good url": "http:\/\/directory.occupy.net\/occupation\/us\/hi\/occupy-kauai", "fetchurl": 0, "name": "Occupy Kauai" }, "geometry": { "type": "Point", "coordinates": [ -160.062281, 21.980066 ] } }
,
{ "type": "Feature", "id": 40, "properties": { "geoid": 40, "latitude": 39.466495, "longitude": -87.413229, "good url": "http:\/\/directory.occupy.net\/occupation\/us\/in\/occupy-terre-haute", "fetchurl": 0, "name": "Occupy Terre Haute" }, "geometry": { "type": "Point", "coordinates": [ -87.413229, 39.466495 ] } }
,
{ "type": "Feature", "id": 41, "properties": { "geoid": 41, "latitude": 37.781562, "longitude": -122.423734, "good url": "http:\/\/directory.occupy.net\/occupation\/us\/ca\/occupy-san-francisco-state-university", "fetchurl": 0, "name": "Occupy San Francisco - State University" }, "geometry": { "type": "Point", "coordinates": [ -122.423734, 37.781562 ] } }
,
{ "type": "Feature", "id": 42, "properties": { "geoid": 42, "latitude": 52.516074, "longitude": 13.376987, "good url": "http:\/\/directory.occupy.net\/occupation\/de\/occupy-berlin", "fetchurl": 0, "name": "Occupy Berlin" }, "geometry": { "type": "Point", "coordinates": [ 13.376987, 52.516074 ] } }
,
{ "type": "Feature", "id": 43, "properties": { "geoid": 43, "latitude": -36.884109, "longitude": 174.77042, "good url": "http:\/\/directory.occupy.net\/occupation\/nz\/occupy-aotearoa", "fetchurl": 0, "name": "Occupy Aotearoa" }, "geometry": { "type": "Point", "coordinates": [ 174.77042, -36.884109 ] } }
,
{ "type": "Feature", "id": 44, "properties": { "geoid": 44, "latitude": 34.746457, "longitude": -92.288792, "good url": "http:\/\/directory.occupy.net\/occupation\/us\/ar\/occupy-little-rock", "fetchurl": 0, "name": "Occupy Little Rock" }, "geometry": { "type": "Point", "coordinates": [ -92.288792, 34.746457 ] } }
,
{ "type": "Feature", "id": 45, "properties": { "geoid": 45, "latitude": 53.389961, "longitude": -6.30137, "good url": "http:\/\/directory.occupy.net\/occupation\/ie\/occupy-fingal", "fetchurl": 0, "name": "Occupy Fingal" }, "geometry": { "type": "Point", "coordinates": [ -6.30137, 53.389961 ] } }
,
{ "type": "Feature", "id": 46, "properties": { "geoid": 46, "latitude": 51.371454, "longitude": 6.17134, "good url": "http:\/\/directory.occupy.net\/occupation\/nl\/venlo", "fetchurl": 0, "name": "Venlo" }, "geometry": { "type": "Point", "coordinates": [ 6.17134, 51.371454 ] } }
,
{ "type": "Feature", "id": 47, "properties": { "geoid": 47, "latitude": 36.099625, "longitude": -80.241094, "good url": "http:\/\/directory.occupy.net\/occupation\/us\/nc\/occupy-winston-salem", "fetchurl": 0, "name": "Occupy Winston-Salem" }, "geometry": { "type": "Point", "coordinates": [ -80.241094, 36.099625 ] } }
,
{ "type": "Feature", "id": 48, "properties": { "geoid": 48, "latitude": 41.134815, "longitude": -104.821544, "good url": "http:\/\/directory.occupy.net\/occupation\/us\/wy\/occupy-cheyenne", "fetchurl": 0, "name": "Occupy Cheyenne" }, "geometry": { "type": "Point", "coordinates": [ -104.821544, 41.134815 ] } }
,
{ "type": "Feature", "id": 49, "properties": { "geoid": 49, "latitude": 40.42327, "longitude": -104.694459, "good url": "http:\/\/directory.occupy.net\/occupation\/us\/co\/occupy-greeley", "fetchurl": 0, "name": "Occupy Greeley" }, "geometry": { "type": "Point", "coordinates": [ -104.694459, 40.42327 ] } }
,
{ "type": "Feature", "id": 50, "properties": { "geoid": 50, "latitude": 39.067355, "longitude": -108.570304, "good url": "http:\/\/directory.occupy.net\/occupation\/us\/co\/occupy-grand-junction", "fetchurl": 0, "name": "Occupy Grand Junction" }, "geometry": { "type": "Point", "coordinates": [ -108.570304, 39.067355 ] } }
,
{ "type": "Feature", "id": 51, "properties": { "geoid": 51, "latitude": 40.00593, "longitude": -105.267269, "good url": "http:\/\/directory.occupy.net\/occupation\/us\/co\/occupy-boulder-cu", "fetchurl": 0, "name": "Occupy Boulder - CU" }, "geometry": { "type": "Point", "coordinates": [ -105.267269, 40.00593 ] } }
,
{ "type": "Feature", "id": 52, "properties": { "geoid": 52, "latitude": 27.957169, "longitude": -82.481051, "good url": "http:\/\/directory.occupy.net\/occupation\/us\/fl\/occupy-tampa", "fetchurl": 0, "name": "Occupy Tampa" }, "geometry": { "type": "Point", "coordinates": [ -82.481051, 27.957169 ] } }
,
{ "type": "Feature", "id": 53, "properties": { "geoid": 53, "latitude": 39.190265, "longitude": -106.819349, "good url": "http:\/\/directory.occupy.net\/occupation\/us\/co\/occupy-aspen", "fetchurl": 0, "name": "Occupy Aspen" }, "geometry": { "type": "Point", "coordinates": [ -106.819349, 39.190265 ] } }
,
{ "type": "Feature", "id": 54, "properties": { "geoid": 54, "latitude": 40.56264, "longitude": -105.077086, "good url": "http:\/\/directory.occupy.net\/occupation\/us\/co\/occupy-fort-collins", "fetchurl": 0, "name": "Occupy Fort Collins" }, "geometry": { "type": "Point", "coordinates": [ -105.077086, 40.56264 ] } }
,
{ "type": "Feature", "id": 55, "properties": { "geoid": 55, "latitude": 44.87724, "longitude": -117.109934, "good url": "http:\/\/directory.occupy.net\/occupation\/us\/or\/occupy-halfway", "fetchurl": 0, "name": "Occupy Halfway" }, "geometry": { "type": "Point", "coordinates": [ -117.109934, 44.87724 ] } }
,
{ "type": "Feature", "id": 56, "properties": { "geoid": 56, "latitude": 40.217875, "longitude": -74.759404, "good url": "http:\/\/directory.occupy.net\/occupation\/us\/nj\/occupy-trenton", "fetchurl": 0, "name": "Occupy Trenton" }, "geometry": { "type": "Point", "coordinates": [ -74.759404, 40.217875 ] } }
,
{ "type": "Feature", "id": 57, "properties": { "geoid": 57, "latitude": 44.759995, "longitude": -85.615839, "good url": "http:\/\/directory.occupy.net\/occupation\/us\/mi\/occupy-traverse-city", "fetchurl": 0, "name": "Occupy Traverse City" }, "geometry": { "type": "Point", "coordinates": [ -85.615839, 44.759995 ] } }
,
{ "type": "Feature", "id": 58, "properties": { "geoid": 58, "latitude": 30.265053, "longitude": -97.746751, "good url": "http:\/\/directory.occupy.net\/occupation\/us\/tx\/occupy-austin-tx", "fetchurl": 0, "name": "Occupy Austin TX" }, "geometry": { "type": "Point", "coordinates": [ -97.746751, 30.265053 ] } }
,
{ "type": "Feature", "id": 59, "properties": { "geoid": 59, "latitude": 40.005499, "longitude": -76.366886, "good url": "http:\/\/directory.occupy.net\/occupation\/us\/pa\/occupy-lancaster-pa", "fetchurl": 0, "name": "Occupy Lancaster PA" }, "geometry": { "type": "Point", "coordinates": [ -76.366886, 40.005499 ] } }
,
{ "type": "Feature", "id": 60, "properties": { "geoid": 60, "latitude": 54.040171, "longitude": -2.793735, "good url": "http:\/\/directory.occupy.net\/occupation\/gb\/occupy-lancaster-uk", "fetchurl": 0, "name": "Occupy Lancaster UK" }, "geometry": { "type": "Point", "coordinates": [ -2.793735, 54.040171 ] } }
,
{ "type": "Feature", "id": 61, "properties": { "geoid": 61, "latitude": 34.04896, "longitude": -118.25331, "good url": "http:\/\/directory.occupy.net\/occupation\/us\/ca\/occupy-los-angeles", "fetchurl": 0, "name": "Occupy Los Angeles" }, "geometry": { "type": "Point", "coordinates": [ -118.25331, 34.04896 ] } }
,
{ "type": "Feature", "id": 62, "properties": { "geoid": 62, "latitude": 52.031946, "longitude": 5.670516, "good url": "http:\/\/directory.occupy.net\/occupation\/nl\/occupy-ede", "fetchurl": 0, "name": "Occupy Ede" }, "geometry": { "type": "Point", "coordinates": [ 5.670516, 52.031946 ] } }
,
{ "type": "Feature", "id": 63, "properties": { "geoid": 63, "latitude": 38.62597, "longitude": -90.192219, "good url": "http:\/\/directory.occupy.net\/occupation\/us\/mo\/occupy-st-louis", "fetchurl": 0, "name": "Occupy St. Louis" }, "geometry": { "type": "Point", "coordinates": [ -90.192219, 38.62597 ] } }
,
{ "type": "Feature", "id": 64, "properties": { "geoid": 64, "latitude": 47.561241, "longitude": -52.711788, "good url": "http:\/\/directory.occupy.net\/occupation\/ca\/nl\/occupy-st-johns", "fetchurl": 0, "name": "Occupy St. John&#039;s" }, "geometry": { "type": "Point", "coordinates": [ -52.711788, 47.561241 ] } }
,
{ "type": "Feature", "id": 65, "properties": { "geoid": 65, "latitude": 45.96064, "longitude": -66.639124, "good url": "http:\/\/directory.occupy.net\/occupation\/ca\/nb\/occupy-fredericton", "fetchurl": 0, "name": "Occupy Fredericton" }, "geometry": { "type": "Point", "coordinates": [ -66.639124, 45.96064 ] } }
,
{ "type": "Feature", "id": 66, "properties": { "geoid": 66, "latitude": 6.9272, "longitude": 79.8722, "good url": "http:\/\/directory.occupy.net\/occupation\/lk\/occupy-colombo", "fetchurl": 0, "name": "Occupy Colombo" }, "geometry": { "type": "Point", "coordinates": [ 79.8722, 6.9272 ] } }
,
{ "type": "Feature", "id": 67, "properties": { "geoid": 67, "latitude": 34.05349, "longitude": -118.245319, "good url": "http:\/\/directory.occupy.net\/occupation\/us\/ca\/occupy-ucla", "fetchurl": 0, "name": "Occupy UCLA" }, "geometry": { "type": "Point", "coordinates": [ -118.245319, 34.05349 ] } }
,
{ "type": "Feature", "id": 68, "properties": { "geoid": 68, "latitude": 34.105245, "longitude": -117.294124, "good url": "http:\/\/directory.occupy.net\/occupation\/us\/ca\/occupy-san-bernadino-valley", "fetchurl": 0, "name": "Occupy San Bernadino Valley" }, "geometry": { "type": "Point", "coordinates": [ -117.294124, 34.105245 ] } }
,
{ "type": "Feature", "id": 69, "properties": { "geoid": 69, "latitude": 34.10205, "longitude": -117.435759, "good url": "http:\/\/directory.occupy.net\/occupation\/us\/ca\/occupy-fontana", "fetchurl": 0, "name": "Occupy Fontana" }, "geometry": { "type": "Point", "coordinates": [ -117.435759, 34.10205 ] } }
,
{ "type": "Feature", "id": 70, "properties": { "geoid": 70, "latitude": 34.099655, "longitude": -117.372829, "good url": "http:\/\/directory.occupy.net\/occupation\/us\/ca\/occupy-rialto", "fetchurl": 0, "name": "Occupy Rialto" }, "geometry": { "type": "Point", "coordinates": [ -117.372829, 34.099655 ] } }
,
{ "type": "Feature", "id": 71, "properties": { "geoid": 71, "latitude": 44.26178, "longitude": -88.416564, "good url": "http:\/\/directory.occupy.net\/occupation\/us\/wi\/occupy-appleton", "fetchurl": 0, "name": "Occupy Appleton" }, "geometry": { "type": "Point", "coordinates": [ -88.416564, 44.26178 ] } }
,
{ "type": "Feature", "id": 72, "properties": { "geoid": 72, "latitude": 38.99668, "longitude": -77.028874, "good url": "http:\/\/directory.occupy.net\/occupation\/us\/md\/occupy-montgomery-county-md", "fetchurl": 0, "name": "Occupy Montgomery County (MD)" }, "geometry": { "type": "Point", "coordinates": [ -77.028874, 38.99668 ] } }
,
{ "type": "Feature", "id": 73, "properties": { "geoid": 73, "latitude": 37.68602, "longitude": -97.335579, "good url": "http:\/\/directory.occupy.net\/occupation\/us\/ks\/occupy-wichita", "fetchurl": 0, "name": "Occupy Wichita" }, "geometry": { "type": "Point", "coordinates": [ -97.335579, 37.68602 ] } }
,
{ "type": "Feature", "id": 74, "properties": { "geoid": 74, "latitude": 64.147415, "longitude": -21.933989, "good url": "http:\/\/directory.occupy.net\/occupation\/is\/occupy-reykjavik", "fetchurl": 0, "name": "Occupy Reykjavik" }, "geometry": { "type": "Point", "coordinates": [ -21.933989, 64.147415 ] } }
,
{ "type": "Feature", "id": 75, "properties": { "geoid": 75, "latitude": 34.800465, "longitude": -87.675254, "good url": "http:\/\/directory.occupy.net\/occupation\/us\/al\/occupy-florence-al", "fetchurl": 0, "name": "Occupy Florence AL" }, "geometry": { "type": "Point", "coordinates": [ -87.675254, 34.800465 ] } }
,
{ "type": "Feature", "id": 76, "properties": { "geoid": 76, "latitude": 41.509584, "longitude": -90.539182, "good url": "http:\/\/directory.occupy.net\/occupation\/us\/il\/occupy-quad-cities-0", "fetchurl": 0, "name": "Occupy Quad Cities" }, "geometry": { "type": "Point", "coordinates": [ -90.539182, 41.509584 ] } }
,
{ "type": "Feature", "id": 77, "properties": { "geoid": 77, "latitude": 45.535185, "longitude": -73.60995, "good url": "http:\/\/directory.occupy.net\/occupation\/ca\/qc\/occupons-le-coeur-de-lile", "fetchurl": 0, "name": "Occupons le Coeur de Lile" }, "geometry": { "type": "Point", "coordinates": [ -73.60995, 45.535185 ] } }
,
{ "type": "Feature", "id": 78, "properties": { "geoid": 78, "latitude": 43.04181, "longitude": -87.906844, "good url": "http:\/\/directory.occupy.net\/occupation\/us\/wi\/occupy-hood-milwaukee", "fetchurl": 0, "name": "Occupy The Hood" }, "geometry": { "type": "Point", "coordinates": [ -87.906844, 43.04181 ] } }
,
{ "type": "Feature", "id": 79, "properties": { "geoid": 79, "latitude": 43.04181, "longitude": -87.906844, "good url": "http:\/\/directory.occupy.net\/occupation\/us\/wi\/occupy-milwaukee", "fetchurl": 0, "name": "Occupy Milwaukee" }, "geometry": { "type": "Point", "coordinates": [ -87.906844, 43.04181 ] } }
,
{ "type": "Feature", "id": 80, "properties": { "geoid": 80, "latitude": 43.059817, "longitude": -87.895498, "good url": "http:\/\/directory.occupy.net\/occupation\/us\/wi\/occupy%C2%A0milwaukee-riverview", "fetchurl": 0, "name": "Occupy Milwaukee (Riverview)" }, "geometry": { "type": "Point", "coordinates": [ -87.895498, 43.059817 ] } }
,
{ "type": "Feature", "id": 81, "properties": { "geoid": 81, "latitude": 39.74001, "longitude": -104.992259, "good url": "http:\/\/directory.occupy.net\/occupation\/us\/co\/occupy-denver", "fetchurl": 0, "name": "Occupy Denver" }, "geometry": { "type": "Point", "coordinates": [ -104.992259, 39.74001 ] } }
,
{ "type": "Feature", "id": 82, "properties": { "geoid": 82, "latitude": 38.83345, "longitude": -104.821814, "good url": "http:\/\/directory.occupy.net\/occupation\/us\/co\/occupy-colorado-springs", "fetchurl": 0, "name": "Occupy Colorado Springs" }, "geometry": { "type": "Point", "coordinates": [ -104.821814, 38.83345 ] } }
,
{ "type": "Feature", "id": 83, "properties": { "geoid": 83, "latitude": 49.68672, "longitude": -124.993141, "good url": "http:\/\/directory.occupy.net\/occupation\/ca\/bc\/occupy-courtenay", "fetchurl": 0, "name": "Occupy Courtenay" }, "geometry": { "type": "Point", "coordinates": [ -124.993141, 49.68672 ] } }
,
{ "type": "Feature", "id": 84, "properties": { "geoid": 84, "latitude": 49.575605, "longitude": -121.906887, "good url": "http:\/\/directory.occupy.net\/occupation\/ca\/bc\/occupy-fraser-valley", "fetchurl": 0, "name": "Occupy Fraser Valley" }, "geometry": { "type": "Point", "coordinates": [ -121.906887, 49.575605 ] } }
,
{ "type": "Feature", "id": 85, "properties": { "geoid": 85, "latitude": 40.4203, "longitude": -3.705774, "good url": "http:\/\/directory.occupy.net\/occupation\/es\/occupy-madrid", "fetchurl": 0, "name": "Occupy Madrid" }, "geometry": { "type": "Point", "coordinates": [ -3.705774, 40.4203 ] } }
,
{ "type": "Feature", "id": 86, "properties": { "geoid": 86, "latitude": 41.657825, "longitude": -91.526534, "good url": "http:\/\/directory.occupy.net\/occupation\/us\/ia\/occupy-iowa-city", "fetchurl": 0, "name": "Occupy Iowa City" }, "geometry": { "type": "Point", "coordinates": [ -91.526534, 41.657825 ] } }
,
{ "type": "Feature", "id": 87, "properties": { "geoid": 87, "latitude": 39.678538, "longitude": -104.9634, "good url": "http:\/\/directory.occupy.net\/occupation\/us\/co\/occupy-du-university-denver", "fetchurl": 0, "name": "Occupy DU - University of Denver" }, "geometry": { "type": "Point", "coordinates": [ -104.9634, 39.678538 ] } }
,
{ "type": "Feature", "id": 88, "properties": { "geoid": 88, "latitude": 37.484357, "longitude": -119.903089, "good url": "http:\/\/directory.occupy.net\/occupation\/us\/ca\/occupy-mariposa-county", "fetchurl": 0, "name": "Occupy Mariposa County" }, "geometry": { "type": "Point", "coordinates": [ -119.903089, 37.484357 ] } }
,
{ "type": "Feature", "id": 89, "properties": { "geoid": 89, "latitude": 47.76992, "longitude": -122.389349, "good url": "http:\/\/directory.occupy.net\/occupation\/us\/wa\/occupy-richmond-beach-wa", "fetchurl": 0, "name": "Occupy Richmond Beach WA" }, "geometry": { "type": "Point", "coordinates": [ -122.389349, 47.76992 ] } }
,
{ "type": "Feature", "id": 90, "properties": { "geoid": 90, "latitude": 39.266054, "longitude": -120.641529, "good url": "http:\/\/directory.occupy.net\/occupation\/us\/ca\/occupy-nevada-county", "fetchurl": 0, "name": "Occupy Nevada County" }, "geometry": { "type": "Point", "coordinates": [ -120.641529, 39.266054 ] } }
,
{ "type": "Feature", "id": 91, "properties": { "geoid": 91, "latitude": 30.620541, "longitude": -96.325897, "good url": "http:\/\/directory.occupy.net\/occupation\/us\/tx\/occupy-bryan-college-station", "fetchurl": 0, "name": "Occupy Bryan - College Station" }, "geometry": { "type": "Point", "coordinates": [ -96.325897, 30.620541 ] } }
,
{ "type": "Feature", "id": 92, "properties": { "geoid": 92, "latitude": 39.70871, "longitude": -104.812652, "good url": "http:\/\/directory.occupy.net\/occupation\/us\/co\/occupy-aurora-co", "fetchurl": 0, "name": "Occupy Aurora CO" }, "geometry": { "type": "Point", "coordinates": [ -104.812652, 39.70871 ] } }
,
{ "type": "Feature", "id": 93, "properties": { "geoid": 93, "latitude": 39.468791, "longitude": -0.376913, "good url": "http:\/\/directory.occupy.net\/occupation\/es\/occupy-valencia", "fetchurl": 0, "name": "Occupy Valencia" }, "geometry": { "type": "Point", "coordinates": [ -0.376913, 39.468791 ] } }
,
{ "type": "Feature", "id": 94, "properties": { "geoid": 94, "latitude": 54.595295, "longitude": -5.934524, "good url": "http:\/\/directory.occupy.net\/occupation\/gb\/occupy-belfast", "fetchurl": 0, "name": "Occupy Belfast" }, "geometry": { "type": "Point", "coordinates": [ -5.934524, 54.595295 ] } }
,
{ "type": "Feature", "id": 95, "properties": { "geoid": 95, "latitude": 53.423267, "longitude": -7.937107, "good url": "http:\/\/directory.occupy.net\/occupation\/ie\/occupy-athlone", "fetchurl": 0, "name": "Occupy Athlone" }, "geometry": { "type": "Point", "coordinates": [ -7.937107, 53.423267 ] } }
,
{ "type": "Feature", "id": 96, "properties": { "geoid": 96, "latitude": 52.262, "longitude": -7.110869, "good url": "http:\/\/directory.occupy.net\/occupation\/ie\/occupy-waterford", "fetchurl": 0, "name": "Occupy Waterford" }, "geometry": { "type": "Point", "coordinates": [ -7.110869, 52.262 ] } }
,
{ "type": "Feature", "id": 97, "properties": { "geoid": 97, "latitude": 51.89834, "longitude": -8.472774, "good url": "http:\/\/directory.occupy.net\/occupation\/ie\/occupy-cork", "fetchurl": 0, "name": "Occupy Cork" }, "geometry": { "type": "Point", "coordinates": [ -8.472774, 51.89834 ] } }
,
{ "type": "Feature", "id": 98, "properties": { "geoid": 98, "latitude": -31.924074, "longitude": 115.912231, "good url": "http:\/\/directory.occupy.net\/occupation\/au\/wa\/occupy-perth", "fetchurl": 0, "name": "Occupy Perth" }, "geometry": { "type": "Point", "coordinates": [ 115.912231, -31.924074 ] } }
,
{ "type": "Feature", "id": 99, "properties": { "geoid": 99, "latitude": 45.403264, "longitude": -71.888935, "good url": "http:\/\/directory.occupy.net\/occupation\/ca\/qc\/occupons-sherbrooke-occupy-sherbrooke", "fetchurl": 0, "name": "Occupons Sherbrooke - Occupy Sherbrooke" }, "geometry": { "type": "Point", "coordinates": [ -71.888935, 45.403264 ] } }
,
{ "type": "Feature", "id": 100, "properties": { "geoid": 100, "latitude": 51.88031, "longitude": -9.58384, "good url": "http:\/\/directory.occupy.net\/occupation\/ie\/occupy-kenmare", "fetchurl": 0, "name": "Occupy Kenmare" }, "geometry": { "type": "Point", "coordinates": [ -9.58384, 51.88031 ] } }
,
{ "type": "Feature", "id": 101, "properties": { "geoid": 101, "latitude": 53.34807, "longitude": -6.248274, "good url": "http:\/\/directory.occupy.net\/occupation\/ie\/occupy-dame-street", "fetchurl": 0, "name": "Occupy Dame Street" }, "geometry": { "type": "Point", "coordinates": [ -6.248274, 53.34807 ] } }
,
{ "type": "Feature", "id": 102, "properties": { "geoid": 102, "latitude": -33.919104, "longitude": 18.42197, "good url": "http:\/\/directory.occupy.net\/occupation\/za\/occupy-cape-town", "fetchurl": 0, "name": "Occupy Cape Town" }, "geometry": { "type": "Point", "coordinates": [ 18.42197, -33.919104 ] } }
,
{ "type": "Feature", "id": 103, "properties": { "geoid": 103, "latitude": 37.667225, "longitude": -97.226738, "good url": "http:\/\/directory.occupy.net\/occupation\/us\/ks\/occupy-wichita-0", "fetchurl": 0, "name": "Occupy Wichita" }, "geometry": { "type": "Point", "coordinates": [ -97.226738, 37.667225 ] } }
,
{ "type": "Feature", "id": 104, "properties": { "geoid": 104, "latitude": 42.284054, "longitude": -71.345853, "good url": "http:\/\/directory.occupy.net\/occupation\/us\/ma\/occupy-natick-0", "fetchurl": 0, "name": "Occupy Natick" }, "geometry": { "type": "Point", "coordinates": [ -71.345853, 42.284054 ] } }
,
{ "type": "Feature", "id": 105, "properties": { "geoid": 105, "latitude": 53.34807, "longitude": -6.248274, "good url": "http:\/\/directory.occupy.net\/occupation\/ie\/occupy-dublin", "fetchurl": 0, "name": "Occupy Dublin" }, "geometry": { "type": "Point", "coordinates": [ -6.248274, 53.34807 ] } }
,
{ "type": "Feature", "id": 106, "properties": { "geoid": 106, "latitude": 54.951939, "longitude": -7.730824, "good url": "http:\/\/directory.occupy.net\/occupation\/ie\/occupy-letterkenny", "fetchurl": 0, "name": "Occupy Letterkenny" }, "geometry": { "type": "Point", "coordinates": [ -7.730824, 54.951939 ] } }
,
{ "type": "Feature", "id": 107, "properties": { "geoid": 107, "latitude": 53.273885, "longitude": -9.048349, "good url": "http:\/\/directory.occupy.net\/occupation\/ie\/occupy-galway", "fetchurl": 0, "name": "Occupy Galway" }, "geometry": { "type": "Point", "coordinates": [ -9.048349, 53.273885 ] } }
,
{ "type": "Feature", "id": 108, "properties": { "geoid": 108, "latitude": 40.005169, "longitude": -105.266388, "good url": "http:\/\/directory.occupy.net\/occupation\/us\/co\/occupy-boulder", "fetchurl": 0, "name": "Occupy Boulder" }, "geometry": { "type": "Point", "coordinates": [ -105.266388, 40.005169 ] } }
,
{ "type": "Feature", "id": 109, "properties": { "geoid": 109, "latitude": 40.70915, "longitude": -74.010549, "good url": "http:\/\/directory.occupy.net\/occupation\/us\/ny\/occupy-wall-street", "fetchurl": 0, "name": "Occupy Wall Street" }, "geometry": { "type": "Point", "coordinates": [ -74.010549, 40.70915 ] } }
,
{ "type": "Feature", "id": 110, "properties": { "geoid": 110, "latitude": 40.71455, "longitude": -74.007124, "good url": "http:\/\/directory.occupy.net\/occupation\/us\/ny\/occupy-nyc-bbc", "fetchurl": 0, "name": "Occupy NYC" }, "geometry": { "type": "Point", "coordinates": [ -74.007124, 40.71455 ] } }
,
{ "type": "Feature", "id": 111, "properties": { "geoid": 111, "latitude": 38.437731, "longitude": -122.712427, "good url": "http:\/\/directory.occupy.net\/occupation\/us\/ca\/occupy-santa-rosa", "fetchurl": 0, "name": "Occupy Santa Rosa" }, "geometry": { "type": "Point", "coordinates": [ -122.712427, 38.437731 ] } }
,
{ "type": "Feature", "id": 112, "properties": { "geoid": 112, "latitude": 29.42449, "longitude": -98.494619, "good url": "http:\/\/directory.occupy.net\/occupation\/us\/tx\/occupy-bexar", "fetchurl": 0, "name": "Occupy Bexar" }, "geometry": { "type": "Point", "coordinates": [ -98.494619, 29.42449 ] } }
,
{ "type": "Feature", "id": 113, "properties": { "geoid": 113, "latitude": 29.42449, "longitude": -98.494619, "good url": "http:\/\/directory.occupy.net\/occupation\/us\/tx\/occupy-san-antonio", "fetchurl": 0, "name": "Occupy San Antonio" }, "geometry": { "type": "Point", "coordinates": [ -98.494619, 29.42449 ] } }
,
{ "type": "Feature", "id": 114, "properties": { "geoid": 114, "latitude": 40.77932, "longitude": -73.909081, "good url": "http:\/\/directory.occupy.net\/occupation\/us\/ny\/occupy-astoria-long-island-city", "fetchurl": 0, "name": "Occupy Astoria Long Island City" }, "geometry": { "type": "Point", "coordinates": [ -73.909081, 40.77932 ] } }
,
{ "type": "Feature", "id": 115, "properties": { "geoid": 115, "latitude": 46.18977, "longitude": -123.833954, "good url": "http:\/\/directory.occupy.net\/occupation\/us\/or\/occupy-astoria-or", "fetchurl": 0, "name": "Occupy Astoria OR" }, "geometry": { "type": "Point", "coordinates": [ -123.833954, 46.18977 ] } }
,
{ "type": "Feature", "id": 116, "properties": { "geoid": 116, "latitude": 41.844504, "longitude": -88.068234, "good url": "http:\/\/directory.occupy.net\/occupation\/us\/il\/occupy-college-dupage", "fetchurl": 0, "name": "Occupy College Of DuPage" }, "geometry": { "type": "Point", "coordinates": [ -88.068234, 41.844504 ] } }
,
{ "type": "Feature", "id": 117, "properties": { "geoid": 117, "latitude": 48.149245, "longitude": 17.107005, "good url": "http:\/\/directory.occupy.net\/occupation\/sk\/occupy-bratislava", "fetchurl": 0, "name": "Occupy Bratislava" }, "geometry": { "type": "Point", "coordinates": [ 17.107005, 48.149245 ] } }
,
{ "type": "Feature", "id": 118, "properties": { "geoid": 118, "latitude": 32.607465, "longitude": -85.481735, "good url": "http:\/\/directory.occupy.net\/occupation\/us\/al\/occupy-auburn", "fetchurl": 0, "name": "Occupy Auburn" }, "geometry": { "type": "Point", "coordinates": [ -85.481735, 32.607465 ] } }
,
{ "type": "Feature", "id": 119, "properties": { "geoid": 119, "latitude": 33.520295, "longitude": -86.811504, "good url": "http:\/\/directory.occupy.net\/occupation\/us\/al\/occupy-birmingham-al", "fetchurl": 0, "name": "Occupy Birmingham AL" }, "geometry": { "type": "Point", "coordinates": [ -86.811504, 33.520295 ] } }
,
{ "type": "Feature", "id": 120, "properties": { "geoid": 120, "latitude": 33.65711, "longitude": -85.819449, "good url": "http:\/\/directory.occupy.net\/occupation\/us\/al\/occupy-anniston", "fetchurl": 0, "name": "Occupy Anniston" }, "geometry": { "type": "Point", "coordinates": [ -85.819449, 33.65711 ] } }
,
{ "type": "Feature", "id": 121, "properties": { "geoid": 121, "latitude": 37.740131, "longitude": -122.419952, "good url": "http:\/\/directory.occupy.net\/occupation\/us\/ca\/occupy-bernal", "fetchurl": 0, "name": "Occupy Bernal" }, "geometry": { "type": "Point", "coordinates": [ -122.419952, 37.740131 ] } }
,
{ "type": "Feature", "id": 122, "properties": { "geoid": 122, "latitude": 43.07471, "longitude": -89.386369, "good url": "http:\/\/directory.occupy.net\/occupation\/us\/wi\/occupy-madison-wi", "fetchurl": 0, "name": "Occupy Madison WI" }, "geometry": { "type": "Point", "coordinates": [ -89.386369, 43.07471 ] } }
,
{ "type": "Feature", "id": 123, "properties": { "geoid": 123, "latitude": 46.87278, "longitude": -113.996234, "good url": "http:\/\/directory.occupy.net\/occupation\/us\/mt\/occupy-university-montana", "fetchurl": 0, "name": "Occupy University of Montana" }, "geometry": { "type": "Point", "coordinates": [ -113.996234, 46.87278 ] } }
,
{ "type": "Feature", "id": 124, "properties": { "geoid": 124, "latitude": 47.672976, "longitude": -117.385822, "good url": "http:\/\/directory.occupy.net\/occupation\/us\/wa\/occupy-spokane", "fetchurl": 0, "name": "Occupy Spokane" }, "geometry": { "type": "Point", "coordinates": [ -117.385822, 47.672976 ] } }
,
{ "type": "Feature", "id": 125, "properties": { "geoid": 125, "latitude": -12.97002, "longitude": -38.504559, "good url": "http:\/\/directory.occupy.net\/occupation\/br\/ba\/occupy-salvador", "fetchurl": 0, "name": "Occupy Salvador" }, "geometry": { "type": "Point", "coordinates": [ -38.504559, -12.97002 ] } }
,
{ "type": "Feature", "id": 126, "properties": { "geoid": 126, "latitude": -23.590315, "longitude": -46.587154, "good url": "http:\/\/directory.occupy.net\/occupation\/br\/sp\/occupy-sao-paulo-acampa-sampa", "fetchurl": 0, "name": "Occupy Sao Paulo (Acampa Sampa)" }, "geometry": { "type": "Point", "coordinates": [ -46.587154, -23.590315 ] } }
,
{ "type": "Feature", "id": 127, "properties": { "geoid": 127, "latitude": -30.02652, "longitude": -51.222561, "good url": "http:\/\/directory.occupy.net\/occupation\/br\/rs\/occupy-porto-alegre-ocupa-poa", "fetchurl": 0, "name": "Occupy Porto Alegre (Ocupa POA)" }, "geometry": { "type": "Point", "coordinates": [ -51.222561, -30.02652 ] } }
,
{ "type": "Feature", "id": 128, "properties": { "geoid": 128, "latitude": -22.97673, "longitude": -43.19508, "good url": "http:\/\/directory.occupy.net\/occupation\/br\/rj\/occupy-rio-ocupa-rio", "fetchurl": 0, "name": "Occupy Rio (Ocupa Rio)" }, "geometry": { "type": "Point", "coordinates": [ -43.19508, -22.97673 ] } }
,
{ "type": "Feature", "id": 129, "properties": { "geoid": 129, "latitude": 32.08078, "longitude": -81.090719, "good url": "http:\/\/directory.occupy.net\/occupation\/us\/ga\/occupy-savannah", "fetchurl": 0, "name": "Occupy Savannah" }, "geometry": { "type": "Point", "coordinates": [ -81.090719, 32.08078 ] } }
,
{ "type": "Feature", "id": 130, "properties": { "geoid": 130, "latitude": 27.77119, "longitude": -82.638764, "good url": "http:\/\/directory.occupy.net\/occupation\/us\/fl\/occupy-st-petersburg-fl", "fetchurl": 0, "name": "Occupy St. Petersburg FL" }, "geometry": { "type": "Point", "coordinates": [ -82.638764, 27.77119 ] } }
,
{ "type": "Feature", "id": 131, "properties": { "geoid": 131, "latitude": 59.93314, "longitude": 30.306115, "good url": "http:\/\/directory.occupy.net\/occupation\/ru\/occupy-st-petersburg-rus", "fetchurl": 0, "name": "Occupy St. Petersburg RUS" }, "geometry": { "type": "Point", "coordinates": [ 30.306115, 59.93314 ] } }
,
{ "type": "Feature", "id": 132, "properties": { "geoid": 132, "latitude": 59.436475, "longitude": 24.7526, "good url": "http:\/\/directory.occupy.net\/occupation\/ee\/occupy-tallinn-0", "fetchurl": 0, "name": "Occupy Tallinn" }, "geometry": { "type": "Point", "coordinates": [ 24.7526, 59.436475 ] } }
,
{ "type": "Feature", "id": 133, "properties": { "geoid": 133, "latitude": 28.626225, "longitude": 77.218075, "good url": "http:\/\/directory.occupy.net\/occupation\/in\/occupy-new-delhi", "fetchurl": 0, "name": "Occupy New Delhi" }, "geometry": { "type": "Point", "coordinates": [ 77.218075, 28.626225 ] } }
,
{ "type": "Feature", "id": 134, "properties": { "geoid": 134, "latitude": 28.5948, "longitude": 77.226246, "good url": "http:\/\/directory.occupy.net\/occupation\/in\/occupy-delhi-india", "fetchurl": 0, "name": "Occupy Delhi India" }, "geometry": { "type": "Point", "coordinates": [ 77.226246, 28.5948 ] } }
,
{ "type": "Feature", "id": 135, "properties": { "geoid": 135, "latitude": 25.36763, "longitude": 68.378532, "good url": "http:\/\/directory.occupy.net\/occupation\/pk\/occupy-hyderabad-pakistan", "fetchurl": 0, "name": "Occupy Hyderabad Pakistan" }, "geometry": { "type": "Point", "coordinates": [ 68.378532, 25.36763 ] } }
,
{ "type": "Feature", "id": 136, "properties": { "geoid": 136, "latitude": 45.520041, "longitude": -122.654298, "good url": "http:\/\/directory.occupy.net\/occupation\/us\/or\/occupy-portland-or", "fetchurl": 0, "name": "Occupy Portland OR" }, "geometry": { "type": "Point", "coordinates": [ -122.654298, 45.520041 ] } }
,
{ "type": "Feature", "id": 137, "properties": { "geoid": 137, "latitude": 42.91097, "longitude": -81.291269, "good url": "http:\/\/directory.occupy.net\/occupation\/ca\/on\/occupy-london-ont", "fetchurl": 0, "name": "Occupy London ONT" }, "geometry": { "type": "Point", "coordinates": [ -81.291269, 42.91097 ] } }
,
{ "type": "Feature", "id": 138, "properties": { "geoid": 138, "latitude": 43.689877, "longitude": -114.345116, "good url": "http:\/\/directory.occupy.net\/occupation\/us\/id\/occupy-teton-valley", "fetchurl": 0, "name": "Occupy Teton Valley" }, "geometry": { "type": "Point", "coordinates": [ -114.345116, 43.689877 ] } }
,
{ "type": "Feature", "id": 139, "properties": { "geoid": 139, "latitude": 43.834922, "longitude": 25.9573, "good url": "http:\/\/directory.occupy.net\/occupation\/bg\/occupy-ruse-okupiray-ruse", "fetchurl": 0, "name": "Occupy Ruse" }, "geometry": { "type": "Point", "coordinates": [ 25.9573, 43.834922 ] } }
,
{ "type": "Feature", "id": 140, "properties": { "geoid": 140, "latitude": -22.521429, "longitude": 17.047665, "good url": "http:\/\/directory.occupy.net\/occupation\/na\/occupy-windhoek", "fetchurl": 0, "name": "Occupy Windhoek" }, "geometry": { "type": "Point", "coordinates": [ 17.047665, -22.521429 ] } }
,
{ "type": "Feature", "id": 141, "properties": { "geoid": 141, "latitude": -1.9501, "longitude": 30.058769, "good url": "http:\/\/directory.occupy.net\/occupation\/rw\/occupy-kigali", "fetchurl": 0, "name": "Occupy Kigali" }, "geometry": { "type": "Point", "coordinates": [ 30.058769, -1.9501 ] } }
,
{ "type": "Feature", "id": 142, "properties": { "geoid": 142, "latitude": 37.980808, "longitude": -122.025192, "good url": "http:\/\/directory.occupy.net\/occupation\/us\/ca\/occupy-contra-costa-county", "fetchurl": 0, "name": "Occupy Contra Costa County" }, "geometry": { "type": "Point", "coordinates": [ -122.025192, 37.980808 ] } }
,
{ "type": "Feature", "id": 143, "properties": { "geoid": 143, "latitude": 33.885, "longitude": -118.161399, "good url": "http:\/\/directory.occupy.net\/occupation\/us\/ca\/occupy-paramount", "fetchurl": 0, "name": "Occupy Paramount" }, "geometry": { "type": "Point", "coordinates": [ -118.161399, 33.885 ] } }
,
{ "type": "Feature", "id": 144, "properties": { "geoid": 144, "latitude": 30.296005, "longitude": -82.984459, "good url": "http:\/\/directory.occupy.net\/occupation\/us\/fl\/occupy-live-oak", "fetchurl": 0, "name": "Occupy Live Oak" }, "geometry": { "type": "Point", "coordinates": [ -82.984459, 30.296005 ] } }
,
{ "type": "Feature", "id": 145, "properties": { "geoid": 145, "latitude": 48.272995, "longitude": -116.547789, "good url": "http:\/\/directory.occupy.net\/occupation\/us\/id\/occupy-sandpoint", "fetchurl": 0, "name": "Occupy Sandpoint" }, "geometry": { "type": "Point", "coordinates": [ -116.547789, 48.272995 ] } }
,
{ "type": "Feature", "id": 146, "properties": { "geoid": 146, "latitude": 42.31617, "longitude": -85.180224, "good url": "http:\/\/directory.occupy.net\/occupation\/us\/mi\/occupy-battle-creek", "fetchurl": 0, "name": "Occupy Battle Creek" }, "geometry": { "type": "Point", "coordinates": [ -85.180224, 42.31617 ] } }
,
{ "type": "Feature", "id": 147, "properties": { "geoid": 147, "latitude": 6.43918, "longitude": 3.42348, "good url": "http:\/\/directory.occupy.net\/occupation\/ng\/occupy-lagos", "fetchurl": 0, "name": "Occupy Lagos" }, "geometry": { "type": "Point", "coordinates": [ 3.42348, 6.43918 ] } }
,
{ "type": "Feature", "id": 148, "properties": { "geoid": 148, "latitude": 5.55856, "longitude": -0.20092, "good url": "http:\/\/directory.occupy.net\/occupation\/gh\/occupy-accra", "fetchurl": 0, "name": "Occupy Accra" }, "geometry": { "type": "Point", "coordinates": [ -0.20092, 5.55856 ] } }
,
{ "type": "Feature", "id": 149, "properties": { "geoid": 149, "latitude": 44.01667, "longitude": 20.91667, "good url": "http:\/\/directory.occupy.net\/occupation\/rs\/occupy-kragujevac", "fetchurl": 0, "name": "Occupy Kragujevac" }, "geometry": { "type": "Point", "coordinates": [ 20.91667, 44.01667 ] } }
,
{ "type": "Feature", "id": 150, "properties": { "geoid": 150, "latitude": 41.823875, "longitude": -71.411994, "good url": "http:\/\/directory.occupy.net\/occupation\/us\/ri\/occupy-providence", "fetchurl": 0, "name": "Occupy Providence" }, "geometry": { "type": "Point", "coordinates": [ -71.411994, 41.823875 ] } }
,
{ "type": "Feature", "id": 151, "properties": { "geoid": 151, "latitude": 37.027795, "longitude": -76.345119, "good url": "http:\/\/directory.occupy.net\/occupation\/us\/va\/occupy-hampton-va", "fetchurl": 0, "name": "Occupy Hampton VA" }, "geometry": { "type": "Point", "coordinates": [ -76.345119, 37.027795 ] } }
,
{ "type": "Feature", "id": 152, "properties": { "geoid": 152, "latitude": 42.596605, "longitude": -82.877409, "good url": "http:\/\/directory.occupy.net\/occupation\/us\/mi\/occupy-mount-clemons", "fetchurl": 0, "name": "Occupy Mount Clemons" }, "geometry": { "type": "Point", "coordinates": [ -82.877409, 42.596605 ] } }
,
{ "type": "Feature", "id": 153, "properties": { "geoid": 153, "latitude": 40.584949, "longitude": -74.417187, "good url": "http:\/\/directory.occupy.net\/occupation\/us\/nj\/occupy-south-plainfield", "fetchurl": 0, "name": "Occupy South Plainfield" }, "geometry": { "type": "Point", "coordinates": [ -74.417187, 40.584949 ] } }
,
{ "type": "Feature", "id": 154, "properties": { "geoid": 154, "latitude": 37.776864, "longitude": -121.967299, "good url": "http:\/\/directory.occupy.net\/occupation\/us\/ca\/occupy-san-ramon", "fetchurl": 0, "name": "Occupy San Ramon" }, "geometry": { "type": "Point", "coordinates": [ -121.967299, 37.776864 ] } }
,
{ "type": "Feature", "id": 155, "properties": { "geoid": 155, "latitude": 41.001077, "longitude": -72.295333, "good url": "http:\/\/directory.occupy.net\/occupation\/us\/ny\/occupy-the-hamptons", "fetchurl": 0, "name": "Occupy The Hamptons" }, "geometry": { "type": "Point", "coordinates": [ -72.295333, 41.001077 ] } }
,
{ "type": "Feature", "id": 156, "properties": { "geoid": 156, "latitude": 38.05254, "longitude": -81.103394, "good url": "http:\/\/directory.occupy.net\/occupation\/us\/wv\/occupy-fayetteville-wv", "fetchurl": 0, "name": "Occupy Fayetteville WV" }, "geometry": { "type": "Point", "coordinates": [ -81.103394, 38.05254 ] } }
,
{ "type": "Feature", "id": 157, "properties": { "geoid": 157, "latitude": 47.328, "longitude": -122.580369, "good url": "http:\/\/directory.occupy.net\/occupation\/us\/wa\/occupy-gig-harbor", "fetchurl": 0, "name": "Occupy Gig Harbor" }, "geometry": { "type": "Point", "coordinates": [ -122.580369, 47.328 ] } }
,
{ "type": "Feature", "id": 158, "properties": { "geoid": 158, "latitude": 35.97508, "longitude": -78.507324, "good url": "http:\/\/directory.occupy.net\/occupation\/us\/nc\/occupy-wake-forest", "fetchurl": 0, "name": "Occupy Wake Forest" }, "geometry": { "type": "Point", "coordinates": [ -78.507324, 35.97508 ] } }
,
{ "type": "Feature", "id": 159, "properties": { "geoid": 159, "latitude": 13.4615, "longitude": 144.794998, "good url": "http:\/\/directory.occupy.net\/occupation\/us\/gu\/occupy-barrigada", "fetchurl": 0, "name": "Occupy Barrigada" }, "geometry": { "type": "Point", "coordinates": [ 144.794998, 13.4615 ] } }
,
{ "type": "Feature", "id": 160, "properties": { "geoid": 160, "latitude": 32.95398, "longitude": -96.816894, "good url": "http:\/\/directory.occupy.net\/occupation\/us\/tx\/occupy-addison", "fetchurl": 0, "name": "Occupy Addison" }, "geometry": { "type": "Point", "coordinates": [ -96.816894, 32.95398 ] } }
,
{ "type": "Feature", "id": 161, "properties": { "geoid": 161, "latitude": 40.71455, "longitude": -74.007124, "good url": "http:\/\/directory.occupy.net\/occupation\/us\/ny\/occupy-hood-new-york", "fetchurl": 0, "name": "Occupy The Hood" }, "geometry": { "type": "Point", "coordinates": [ -74.007124, 40.71455 ] } }
,
{ "type": "Feature", "id": 162, "properties": { "geoid": 162, "latitude": 42.488155, "longitude": -83.142444, "good url": "http:\/\/directory.occupy.net\/occupation\/us\/mi\/occupy-royal-oak", "fetchurl": 0, "name": "Occupy Royal Oak" }, "geometry": { "type": "Point", "coordinates": [ -83.142444, 42.488155 ] } }
,
{ "type": "Feature", "id": 163, "properties": { "geoid": 163, "latitude": 25.899585, "longitude": -97.495529, "good url": "http:\/\/directory.occupy.net\/occupation\/us\/tx\/occupy-brownsville", "fetchurl": 0, "name": "Occupy Brownsville" }, "geometry": { "type": "Point", "coordinates": [ -97.495529, 25.899585 ] } }
,
{ "type": "Feature", "id": 164, "properties": { "geoid": 164, "latitude": 37.410565, "longitude": -94.704829, "good url": "http:\/\/directory.occupy.net\/occupation\/us\/ks\/occupy-pittsburg-ks", "fetchurl": 0, "name": "Occupy Pittsburg KS" }, "geometry": { "type": "Point", "coordinates": [ -94.704829, 37.410565 ] } }
,
{ "type": "Feature", "id": 165, "properties": { "geoid": 165, "latitude": 25.793095, "longitude": -80.134904, "good url": "http:\/\/directory.occupy.net\/occupation\/us\/fl\/occupy-miami-beach", "fetchurl": 0, "name": "Occupy Miami Beach" }, "geometry": { "type": "Point", "coordinates": [ -80.134904, 25.793095 ] } }
,
{ "type": "Feature", "id": 166, "properties": { "geoid": 166, "latitude": 38.42339, "longitude": -90.375225, "good url": "http:\/\/directory.occupy.net\/occupation\/us\/mo\/occupy-arnold", "fetchurl": 0, "name": "Occupy Arnold" }, "geometry": { "type": "Point", "coordinates": [ -90.375225, 38.42339 ] } }
,
{ "type": "Feature", "id": 167, "properties": { "geoid": 167, "latitude": 37.77301, "longitude": -122.394081, "good url": "http:\/\/directory.occupy.net\/occupation\/us\/ca\/occupy-mission-bay", "fetchurl": 0, "name": "Occupy Mission Bay" }, "geometry": { "type": "Point", "coordinates": [ -122.394081, 37.77301 ] } }
,
{ "type": "Feature", "id": 168, "properties": { "geoid": 168, "latitude": -25.745874, "longitude": 28.18763, "good url": "http:\/\/directory.occupy.net\/occupation\/za\/occupy-pretoria", "fetchurl": 0, "name": "Occupy Pretoria" }, "geometry": { "type": "Point", "coordinates": [ 28.18763, -25.745874 ] } }
,
{ "type": "Feature", "id": 169, "properties": { "geoid": 169, "latitude": 36.798672, "longitude": 10.17263, "good url": "http:\/\/directory.occupy.net\/occupation\/tn\/occupy-tunis", "fetchurl": 0, "name": "Occupy Tunis" }, "geometry": { "type": "Point", "coordinates": [ 10.17263, 36.798672 ] } }
,
{ "type": "Feature", "id": 170, "properties": { "geoid": 170, "latitude": 14.68667, "longitude": -17.45191, "good url": "http:\/\/directory.occupy.net\/occupation\/sn\/occupy-dakar", "fetchurl": 0, "name": "Occupy Dakar" }, "geometry": { "type": "Point", "coordinates": [ -17.45191, 14.68667 ] } }
,
{ "type": "Feature", "id": 171, "properties": { "geoid": 171, "latitude": -29.855744, "longitude": 31.035125, "good url": "http:\/\/directory.occupy.net\/occupation\/za\/occupy-durban", "fetchurl": 0, "name": "Occupy Durban" }, "geometry": { "type": "Point", "coordinates": [ 31.035125, -29.855744 ] } }
,
{ "type": "Feature", "id": 172, "properties": { "geoid": 172, "latitude": 41.30713, "longitude": -72.924979, "good url": "http:\/\/directory.occupy.net\/occupation\/us\/ct\/occupy-new-haven", "fetchurl": 0, "name": "Occupy New Haven" }, "geometry": { "type": "Point", "coordinates": [ -72.924979, 41.30713 ] } }
,
{ "type": "Feature", "id": 173, "properties": { "geoid": 173, "latitude": 37.95368, "longitude": -121.290754, "good url": "http:\/\/directory.occupy.net\/occupation\/us\/ca\/occupy-stockton", "fetchurl": 0, "name": "Occupy Stockton" }, "geometry": { "type": "Point", "coordinates": [ -121.290754, 37.95368 ] } }
,
{ "type": "Feature", "id": 174, "properties": { "geoid": 174, "latitude": -1.277298, "longitude": 36.806261, "good url": "http:\/\/directory.occupy.net\/occupation\/ke\/occupy-nairobi-0", "fetchurl": 0, "name": "Occupy Nairobi" }, "geometry": { "type": "Point", "coordinates": [ 36.806261, -1.277298 ] } }
,
{ "type": "Feature", "id": 175, "properties": { "geoid": 175, "latitude": 30.08374, "longitude": 31.25536, "good url": "http:\/\/directory.occupy.net\/occupation\/eg\/occupy-cairo", "fetchurl": 0, "name": "Occupy Cairo" }, "geometry": { "type": "Point", "coordinates": [ 31.25536, 30.08374 ] } }
,
{ "type": "Feature", "id": 176, "properties": { "geoid": 176, "latitude": 39.0214, "longitude": -120.044819, "good url": "http:\/\/directory.occupy.net\/occupation\/us\/ca\/occupy-south-lake-tahoe-tahoe-lake-tahoe", "fetchurl": 0, "name": "Occupy South Lake Tahoe \/ Tahoe \/ Lake Tahoe" }, "geometry": { "type": "Point", "coordinates": [ -120.044819, 39.0214 ] } }
,
{ "type": "Feature", "id": 177, "properties": { "geoid": 177, "latitude": 43.557135, "longitude": -90.888714, "good url": "http:\/\/directory.occupy.net\/occupation\/us\/wi\/occupy-viroqua", "fetchurl": 0, "name": "Occupy Viroqua" }, "geometry": { "type": "Point", "coordinates": [ -90.888714, 43.557135 ] } }
,
{ "type": "Feature", "id": 178, "properties": { "geoid": 178, "latitude": 37.570189, "longitude": -84.29296, "good url": "http:\/\/directory.occupy.net\/occupation\/us\/ky\/occupy-berea", "fetchurl": 0, "name": "Occupy Berea" }, "geometry": { "type": "Point", "coordinates": [ -84.29296, 37.570189 ] } }
,
{ "type": "Feature", "id": 179, "properties": { "geoid": 179, "latitude": 40.73197, "longitude": -74.174184, "good url": "http:\/\/directory.occupy.net\/occupation\/us\/nj\/occupy-newark-nj", "fetchurl": 0, "name": "Occupy Newark NJ" }, "geometry": { "type": "Point", "coordinates": [ -74.174184, 40.73197 ] } }
,
{ "type": "Feature", "id": 180, "properties": { "geoid": 180, "latitude": 27.41601, "longitude": -82.574374, "good url": "http:\/\/directory.occupy.net\/occupation\/us\/fl\/occupy-sarasota", "fetchurl": 0, "name": "Occupy Sarasota" }, "geometry": { "type": "Point", "coordinates": [ -82.574374, 27.41601 ] } }
,
{ "type": "Feature", "id": 181, "properties": { "geoid": 181, "latitude": 42.718708, "longitude": -84.531693, "good url": "http:\/\/directory.occupy.net\/occupation\/us\/mi\/occupy-lansing", "fetchurl": 0, "name": "Occupy Lansing" }, "geometry": { "type": "Point", "coordinates": [ -84.531693, 42.718708 ] } }
,
{ "type": "Feature", "id": 182, "properties": { "geoid": 182, "latitude": 39.801055, "longitude": -89.643604, "good url": "http:\/\/directory.occupy.net\/occupation\/us\/il\/occupy-springfield-il", "fetchurl": 0, "name": "Occupy Springfield IL" }, "geometry": { "type": "Point", "coordinates": [ -89.643604, 39.801055 ] } }
,
{ "type": "Feature", "id": 183, "properties": { "geoid": 183, "latitude": 41.260675, "longitude": -95.940469, "good url": "http:\/\/directory.occupy.net\/occupation\/us\/ne\/occupy-omaha", "fetchurl": 0, "name": "Occupy Omaha" }, "geometry": { "type": "Point", "coordinates": [ -95.940469, 41.260675 ] } }
,
{ "type": "Feature", "id": 184, "properties": { "geoid": 184, "latitude": 41.625095, "longitude": -71.207609, "good url": "http:\/\/directory.occupy.net\/occupation\/us\/ri\/occupy-tiverton", "fetchurl": 0, "name": "Occupy Tiverton" }, "geometry": { "type": "Point", "coordinates": [ -71.207609, 41.625095 ] } }
,
{ "type": "Feature", "id": 185, "properties": { "geoid": 185, "latitude": 37.869885, "longitude": -122.270539, "good url": "http:\/\/directory.occupy.net\/occupation\/us\/ca\/occupy-berkeley", "fetchurl": 0, "name": "Occupy Berkeley" }, "geometry": { "type": "Point", "coordinates": [ -122.270539, 37.869885 ] } }
,
{ "type": "Feature", "id": 186, "properties": { "geoid": 186, "latitude": 44.979035, "longitude": -93.264929, "good url": "http:\/\/directory.occupy.net\/occupation\/us\/mn\/occupy-minneapolis", "fetchurl": 0, "name": "Occupy Minneapolis" }, "geometry": { "type": "Point", "coordinates": [ -93.264929, 44.979035 ] } }
,
{ "type": "Feature", "id": 187, "properties": { "geoid": 187, "latitude": 38.97024, "longitude": -97.018699, "good url": "http:\/\/directory.occupy.net\/occupation\/us\/ks\/occupy-chapman", "fetchurl": 0, "name": "Occupy Chapman" }, "geometry": { "type": "Point", "coordinates": [ -97.018699, 38.97024 ] } }
,
{ "type": "Feature", "id": 188, "properties": { "geoid": 188, "latitude": 42.64589, "longitude": -71.312844, "good url": "http:\/\/directory.occupy.net\/occupation\/us\/ma\/occupy-lowell", "fetchurl": 0, "name": "Occupy Lowell" }, "geometry": { "type": "Point", "coordinates": [ -71.312844, 42.64589 ] } }
,
{ "type": "Feature", "id": 189, "properties": { "geoid": 189, "latitude": 43.26099, "longitude": -79.888454, "good url": "http:\/\/directory.occupy.net\/occupation\/ca\/on\/occupy-hamilton-can", "fetchurl": 0, "name": "Occupy Hamilton CAN" }, "geometry": { "type": "Point", "coordinates": [ -79.888454, 43.26099 ] } }
,
{ "type": "Feature", "id": 190, "properties": { "geoid": 190, "latitude": 42.827005, "longitude": -75.543969, "good url": "http:\/\/directory.occupy.net\/occupation\/us\/ny\/occupy-hamilton-ny", "fetchurl": 0, "name": "Occupy Hamilton NY" }, "geometry": { "type": "Point", "coordinates": [ -75.543969, 42.827005 ] } }
,
{ "type": "Feature", "id": 191, "properties": { "geoid": 191, "latitude": 45.511795, "longitude": -122.675629, "good url": "http:\/\/directory.occupy.net\/occupation\/us\/or\/occupy-the-hood-portland-or", "fetchurl": 0, "name": "Occupy The Hood" }, "geometry": { "type": "Point", "coordinates": [ -122.675629, 45.511795 ] } }
,
{ "type": "Feature", "id": 192, "properties": { "geoid": 192, "latitude": 43.63761, "longitude": -70.251734, "good url": "http:\/\/directory.occupy.net\/occupation\/us\/me\/occupy-south-portland-me", "fetchurl": 0, "name": "Occupy South Portland ME" }, "geometry": { "type": "Point", "coordinates": [ -70.251734, 43.63761 ] } }
,
{ "type": "Feature", "id": 193, "properties": { "geoid": 193, "latitude": 42.714701, "longitude": 23.321054, "good url": "http:\/\/directory.occupy.net\/occupation\/bg\/occupy-sofia", "fetchurl": 0, "name": "Occupy Sofia" }, "geometry": { "type": "Point", "coordinates": [ 23.321054, 42.714701 ] } }
,
{ "type": "Feature", "id": 194, "properties": { "geoid": 194, "latitude": 41.577824, "longitude": 24.708344, "good url": "http:\/\/directory.occupy.net\/occupation\/bg\/occupy-smolyan", "fetchurl": 0, "name": "Occupy Smolyan" }, "geometry": { "type": "Point", "coordinates": [ 24.708344, 41.577824 ] } }
,
{ "type": "Feature", "id": 195, "properties": { "geoid": 195, "latitude": 39.76691, "longitude": -86.149964, "good url": "http:\/\/directory.occupy.net\/occupation\/us\/in\/occupy-indianapolis", "fetchurl": 0, "name": "Occupy Indianapolis" }, "geometry": { "type": "Point", "coordinates": [ -86.149964, 39.76691 ] } }
,
{ "type": "Feature", "id": 196, "properties": { "geoid": 196, "latitude": 37.805065, "longitude": -122.273024, "good url": "http:\/\/directory.occupy.net\/occupation\/us\/ca\/occupy-oakland", "fetchurl": 0, "name": "Occupy Oakland" }, "geometry": { "type": "Point", "coordinates": [ -122.273024, 37.805065 ] } }
,
{ "type": "Feature", "id": 197, "properties": { "geoid": 197, "latitude": 52.622495, "longitude": 1.2949, "good url": "http:\/\/directory.occupy.net\/occupation\/gb\/occupy-norwich", "fetchurl": 0, "name": "Occupy Norwich" }, "geometry": { "type": "Point", "coordinates": [ 1.2949, 52.622495 ] } }
,
{ "type": "Feature", "id": 198, "properties": { "geoid": 198, "latitude": 41.14032, "longitude": -81.864019, "good url": "http:\/\/directory.occupy.net\/occupation\/us\/oh\/occupy-medina", "fetchurl": 0, "name": "Occupy Medina" }, "geometry": { "type": "Point", "coordinates": [ -81.864019, 41.14032 ] } }
,
{ "type": "Feature", "id": 199, "properties": { "geoid": 199, "latitude": 35.582525, "longitude": -80.814689, "good url": "http:\/\/directory.occupy.net\/occupation\/us\/nc\/occupy-mooresville", "fetchurl": 0, "name": "Occupy Mooresville" }, "geometry": { "type": "Point", "coordinates": [ -80.814689, 35.582525 ] } }
,
{ "type": "Feature", "id": 200, "properties": { "geoid": 200, "latitude": 32.514615, "longitude": -93.747274, "good url": "http:\/\/directory.occupy.net\/occupation\/us\/la\/occupy-shreveport", "fetchurl": 0, "name": "Occupy Shreveport" }, "geometry": { "type": "Point", "coordinates": [ -93.747274, 32.514615 ] } }
,
{ "type": "Feature", "id": 201, "properties": { "geoid": 201, "latitude": 51.48125, "longitude": -3.180734, "good url": "http:\/\/directory.occupy.net\/occupation\/gb\/occupy-cardiff", "fetchurl": 0, "name": "Occupy Cardiff" }, "geometry": { "type": "Point", "coordinates": [ -3.180734, 51.48125 ] } }
,
{ "type": "Feature", "id": 202, "properties": { "geoid": 202, "latitude": 37.89734, "longitude": -122.059949, "good url": "http:\/\/directory.occupy.net\/occupation\/us\/ca\/occupy-walnut-creek", "fetchurl": 0, "name": "Occupy Walnut Creek" }, "geometry": { "type": "Point", "coordinates": [ -122.059949, 37.89734 ] } }
,
{ "type": "Feature", "id": 203, "properties": { "geoid": 203, "latitude": 38.501997, "longitude": -122.997961, "good url": "http:\/\/directory.occupy.net\/occupation\/us\/ca\/occupy-west-sonoma-county", "fetchurl": 0, "name": "Occupy West Sonoma County" }, "geometry": { "type": "Point", "coordinates": [ -122.997961, 38.501997 ] } }
,
{ "type": "Feature", "id": 204, "properties": { "geoid": 204, "latitude": 48.157766, "longitude": -122.559658, "good url": "http:\/\/directory.occupy.net\/occupation\/us\/wa\/occupy-whidbey-island", "fetchurl": 0, "name": "Occupy Whidbey Island" }, "geometry": { "type": "Point", "coordinates": [ -122.559658, 48.157766 ] } }
,
{ "type": "Feature", "id": 205, "properties": { "geoid": 205, "latitude": 34.101555, "longitude": -118.337209, "good url": "http:\/\/directory.occupy.net\/occupation\/us\/ca\/occupy-hollywood-ca", "fetchurl": 0, "name": "Occupy Hollywood CA" }, "geometry": { "type": "Point", "coordinates": [ -118.337209, 34.101555 ] } }
,
{ "type": "Feature", "id": 206, "properties": { "geoid": 206, "latitude": -6.17144, "longitude": 106.82782, "good url": "http:\/\/directory.occupy.net\/occupation\/id\/occupy-jakarta", "fetchurl": 0, "name": "Occupy Jakarta" }, "geometry": { "type": "Point", "coordinates": [ 106.82782, -6.17144 ] } }
,
{ "type": "Feature", "id": 207, "properties": { "geoid": 207, "latitude": 39.76691, "longitude": -86.149964, "good url": "http:\/\/directory.occupy.net\/occupation\/us\/in\/indyows", "fetchurl": 0, "name": "IndyOWS" }, "geometry": { "type": "Point", "coordinates": [ -86.149964, 39.76691 ] } }
,
{ "type": "Feature", "id": 208, "properties": { "geoid": 208, "latitude": 18.015711, "longitude": -76.79731, "good url": "http:\/\/directory.occupy.net\/occupation\/jm\/occupy-kingston-jamaica", "fetchurl": 0, "name": "Occupy Kingston Jamaica" }, "geometry": { "type": "Point", "coordinates": [ -76.79731, 18.015711 ] } }
,
{ "type": "Feature", "id": 209, "properties": { "geoid": 209, "latitude": 46.07038, "longitude": -118.342369, "good url": "http:\/\/directory.occupy.net\/occupation\/us\/wa\/occupy-walla-walla", "fetchurl": 0, "name": "Occupy Walla Walla" }, "geometry": { "type": "Point", "coordinates": [ -118.342369, 46.07038 ] } }
,
{ "type": "Feature", "id": 210, "properties": { "geoid": 210, "latitude": 50.401205, "longitude": -5.271255, "good url": "http:\/\/directory.occupy.net\/occupation\/gb\/cornwall\/occupy-cornwall", "fetchurl": 0, "name": "Occupy Cornwall" }, "geometry": { "type": "Point", "coordinates": [ -5.271255, 50.401205 ] } }
,
{ "type": "Feature", "id": 211, "properties": { "geoid": 211, "latitude": 65.25135, "longitude": -14.01805, "good url": "http:\/\/directory.occupy.net\/occupation\/is\/occupy-seydisfjordur-samstada", "fetchurl": 0, "name": "Occupy Seydisfjordur | Samstada" }, "geometry": { "type": "Point", "coordinates": [ -14.01805, 65.25135 ] } }
,
{ "type": "Feature", "id": 212, "properties": { "geoid": 212, "latitude": 41.541515, "longitude": 2.443905, "good url": "http:\/\/directory.occupy.net\/occupation\/es\/occupy-mataro-15m", "fetchurl": 0, "name": "Occupy Mataro 15M" }, "geometry": { "type": "Point", "coordinates": [ 2.443905, 41.541515 ] } }
,
{ "type": "Feature", "id": 213, "properties": { "geoid": 213, "latitude": 37.87794, "longitude": -4.778403, "good url": "http:\/\/directory.occupy.net\/occupation\/es\/occupy-cordoba", "fetchurl": 0, "name": "Occupy Cordoba" }, "geometry": { "type": "Point", "coordinates": [ -4.778403, 37.87794 ] } }
,
{ "type": "Feature", "id": 214, "properties": { "geoid": 214, "latitude": 46.34018, "longitude": -72.545034, "good url": "http:\/\/directory.occupy.net\/occupation\/ca\/qc\/occupy-trois-rivieres", "fetchurl": 0, "name": "Occupy Trois-Rivieres" }, "geometry": { "type": "Point", "coordinates": [ -72.545034, 46.34018 ] } }
,
{ "type": "Feature", "id": 215, "properties": { "geoid": 215, "latitude": 34.77507, "longitude": -96.678689, "good url": "http:\/\/directory.occupy.net\/occupation\/us\/ok\/occupy-ada-southern-oklahoma", "fetchurl": 0, "name": "Occupy Ada \/ Southern Oklahoma" }, "geometry": { "type": "Point", "coordinates": [ -96.678689, 34.77507 ] } }
,
{ "type": "Feature", "id": 216, "properties": { "geoid": 216, "latitude": 43.370155, "longitude": -8.396744, "good url": "http:\/\/directory.occupy.net\/occupation\/es\/occupy-coruna", "fetchurl": 0, "name": "Occupy A Coruna" }, "geometry": { "type": "Point", "coordinates": [ -8.396744, 43.370155 ] } }
,
{ "type": "Feature", "id": 217, "properties": { "geoid": 217, "latitude": 40.921365, "longitude": -81.105844, "good url": "http:\/\/directory.occupy.net\/occupation\/us\/oh\/occupy-alliance", "fetchurl": 0, "name": "Occupy Alliance" }, "geometry": { "type": "Point", "coordinates": [ -81.105844, 40.921365 ] } }
,
{ "type": "Feature", "id": 218, "properties": { "geoid": 218, "latitude": 38.9767, "longitude": -76.489934, "good url": "http:\/\/directory.occupy.net\/occupation\/us\/md\/occupy-annapolis", "fetchurl": 0, "name": "Occupy Annapolis" }, "geometry": { "type": "Point", "coordinates": [ -76.489934, 38.9767 ] } }
,
{ "type": "Feature", "id": 219, "properties": { "geoid": 219, "latitude": 33.561645, "longitude": -81.722139, "good url": "http:\/\/directory.occupy.net\/occupation\/us\/sc\/occupy-aiken", "fetchurl": 0, "name": "Occupy Aiken" }, "geometry": { "type": "Point", "coordinates": [ -81.722139, 33.561645 ] } }
,
{ "type": "Feature", "id": 220, "properties": { "geoid": 220, "latitude": 41.084195, "longitude": -81.514059, "good url": "http:\/\/directory.occupy.net\/occupation\/us\/oh\/occupy-akron", "fetchurl": 0, "name": "Occupy Akron" }, "geometry": { "type": "Point", "coordinates": [ -81.514059, 41.084195 ] } }
,
{ "type": "Feature", "id": 221, "properties": { "geoid": 221, "latitude": 21.30477, "longitude": -157.857614, "good url": "http:\/\/directory.occupy.net\/occupation\/us\/hi\/deoccupy-honolulu", "fetchurl": 0, "name": "(de)Occupy Honolulu" }, "geometry": { "type": "Point", "coordinates": [ -157.857614, 21.30477 ] } }
,
{ "type": "Feature", "id": 222, "properties": { "geoid": 222, "latitude": 42.025345, "longitude": -93.620199, "good url": "http:\/\/directory.occupy.net\/occupation\/us\/ia\/occupy-ames", "fetchurl": 0, "name": "Occupy Ames" }, "geometry": { "type": "Point", "coordinates": [ -93.620199, 42.025345 ] } }
,
{ "type": "Feature", "id": 223, "properties": { "geoid": 223, "latitude": 48.449295, "longitude": -68.524669, "good url": "http:\/\/directory.occupy.net\/occupation\/ca\/qc\/occupons-rimouski-occupy-rimouski", "fetchurl": 0, "name": "Occupons Rimouski" }, "geometry": { "type": "Point", "coordinates": [ -68.524669, 48.449295 ] } }
,
{ "type": "Feature", "id": 224, "properties": { "geoid": 224, "latitude": 42.025345, "longitude": -93.620199, "good url": "http:\/\/directory.occupy.net\/occupation\/us\/ia\/occupy-ames-isu", "fetchurl": 0, "name": "Occupy Ames ISU" }, "geometry": { "type": "Point", "coordinates": [ -93.620199, 42.025345 ] } }
,
{ "type": "Feature", "id": 225, "properties": { "geoid": 225, "latitude": 40.60257, "longitude": -75.470204, "good url": "http:\/\/directory.occupy.net\/occupation\/us\/pa\/occupy-allentown", "fetchurl": 0, "name": "Occupy Allentown" }, "geometry": { "type": "Point", "coordinates": [ -75.470204, 40.60257 ] } }
,
{ "type": "Feature", "id": 226, "properties": { "geoid": 226, "latitude": -34.926102, "longitude": 138.599884, "good url": "http:\/\/directory.occupy.net\/occupation\/au\/sa\/occupy-adelaide", "fetchurl": 0, "name": "Occupy Adelaide" }, "geometry": { "type": "Point", "coordinates": [ 138.599884, -34.926102 ] } }
,
{ "type": "Feature", "id": 227, "properties": { "geoid": 227, "latitude": 42.281875, "longitude": -83.748479, "good url": "http:\/\/directory.occupy.net\/occupation\/us\/mi\/occupy-ann-arbor", "fetchurl": 0, "name": "Occupy Ann Arbor" }, "geometry": { "type": "Point", "coordinates": [ -83.748479, 42.281875 ] } }
,
{ "type": "Feature", "id": 228, "properties": { "geoid": 228, "latitude": 25.28287, "longitude": 87.80413, "good url": "http:\/\/directory.occupy.net\/occupation\/in\/occupy-ahmedabad", "fetchurl": 0, "name": "Occupy Ahmedabad" }, "geometry": { "type": "Point", "coordinates": [ 87.80413, 25.28287 ] } }
,
{ "type": "Feature", "id": 229, "properties": { "geoid": 229, "latitude": 38.89086, "longitude": -90.183834, "good url": "http:\/\/directory.occupy.net\/occupation\/us\/il\/occupy-alton", "fetchurl": 0, "name": "Occupy Alton" }, "geometry": { "type": "Point", "coordinates": [ -90.183834, 38.89086 ] } }
,
{ "type": "Feature", "id": 230, "properties": { "geoid": 230, "latitude": 40.50719, "longitude": -78.398904, "good url": "http:\/\/directory.occupy.net\/occupation\/us\/pa\/occupy-altoona", "fetchurl": 0, "name": "Occupy Altoona" }, "geometry": { "type": "Point", "coordinates": [ -78.398904, 40.50719 ] } }
,
{ "type": "Feature", "id": 231, "properties": { "geoid": 231, "latitude": 38.4617, "longitude": -120.55011, "good url": "http:\/\/directory.occupy.net\/occupation\/us\/ca\/occupy-amador-county", "fetchurl": 0, "name": "Occupy Amador County" }, "geometry": { "type": "Point", "coordinates": [ -120.55011, 38.4617 ] } }
,
{ "type": "Feature", "id": 232, "properties": { "geoid": 232, "latitude": 35.207255, "longitude": -101.833894, "good url": "http:\/\/directory.occupy.net\/occupation\/us\/tx\/occupy-amarillo", "fetchurl": 0, "name": "Occupy Amarillo" }, "geometry": { "type": "Point", "coordinates": [ -101.833894, 35.207255 ] } }
,
{ "type": "Feature", "id": 233, "properties": { "geoid": 233, "latitude": 40.591845, "longitude": -80.230144, "good url": "http:\/\/directory.occupy.net\/occupation\/us\/pa\/occupy-ambridge", "fetchurl": 0, "name": "Occupy Ambridge" }, "geometry": { "type": "Point", "coordinates": [ -80.230144, 40.591845 ] } }
,
{ "type": "Feature", "id": 234, "properties": { "geoid": 234, "latitude": 51.222085, "longitude": 4.39771, "good url": "http:\/\/directory.occupy.net\/occupation\/be\/occupy-antwerp", "fetchurl": 0, "name": "Occupy Antwerp" }, "geometry": { "type": "Point", "coordinates": [ 4.39771, 51.222085 ] } }
,
{ "type": "Feature", "id": 235, "properties": { "geoid": 235, "latitude": 44.63548, "longitude": -123.107764, "good url": "http:\/\/directory.occupy.net\/occupation\/us\/or\/occupy-albany-or", "fetchurl": 0, "name": "Occupy Albany OR" }, "geometry": { "type": "Point", "coordinates": [ -123.107764, 44.63548 ] } }
,
{ "type": "Feature", "id": 236, "properties": { "geoid": 236, "latitude": 45.889393, "longitude": -95.366344, "good url": "http:\/\/directory.occupy.net\/occupation\/us\/mn\/occupy-alexandria-mn", "fetchurl": 0, "name": "Occupy Alexandria MN" }, "geometry": { "type": "Point", "coordinates": [ -95.366344, 45.889393 ] } }
,
{ "type": "Feature", "id": 237, "properties": { "geoid": 237, "latitude": 38.804605, "longitude": -77.043414, "good url": "http:\/\/directory.occupy.net\/occupation\/us\/va\/occupy-alexandria-va", "fetchurl": 0, "name": "Occupy Alexandria VA" }, "geometry": { "type": "Point", "coordinates": [ -77.043414, 38.804605 ] } }
,
{ "type": "Feature", "id": 238, "properties": { "geoid": 238, "latitude": 50.738798, "longitude": 7.011572, "good url": "http:\/\/directory.occupy.net\/occupation\/de\/occupy-alfter", "fetchurl": 0, "name": "Occupy Alfter" }, "geometry": { "type": "Point", "coordinates": [ 7.011572, 50.738798 ] } }
,
{ "type": "Feature", "id": 239, "properties": { "geoid": 239, "latitude": 48.517485, "longitude": -122.611734, "good url": "http:\/\/directory.occupy.net\/occupation\/us\/wa\/occupy-anacortes", "fetchurl": 0, "name": "Occupy Anacortes" }, "geometry": { "type": "Point", "coordinates": [ -122.611734, 48.517485 ] } }
,
{ "type": "Feature", "id": 240, "properties": { "geoid": 240, "latitude": 32.449175, "longitude": -99.741424, "good url": "http:\/\/directory.occupy.net\/occupation\/us\/tx\/occupy-abilene", "fetchurl": 0, "name": "Occupy Abilene" }, "geometry": { "type": "Point", "coordinates": [ -99.741424, 32.449175 ] } }
,
{ "type": "Feature", "id": 241, "properties": { "geoid": 241, "latitude": 33.83276, "longitude": -117.915719, "good url": "http:\/\/directory.occupy.net\/occupation\/us\/ca\/occupy-anaheim", "fetchurl": 0, "name": "Occupy Anaheim" }, "geometry": { "type": "Point", "coordinates": [ -117.915719, 33.83276 ] } }
,
{ "type": "Feature", "id": 242, "properties": { "geoid": 242, "latitude": 19.4319, "longitude": -99.132851, "good url": "http:\/\/directory.occupy.net\/occupation\/mx\/df\/occupy-acampada-sur", "fetchurl": 0, "name": "Occupy Acampada Sur" }, "geometry": { "type": "Point", "coordinates": [ -99.132851, 19.4319 ] } }
,
{ "type": "Feature", "id": 243, "properties": { "geoid": 243, "latitude": 61.21755, "longitude": -149.858384, "good url": "http:\/\/directory.occupy.net\/occupation\/us\/ak\/occupy-anchorage", "fetchurl": 0, "name": "Occupy Anchorage" }, "geometry": { "type": "Point", "coordinates": [ -149.858384, 61.21755 ] } }
,
{ "type": "Feature", "id": 244, "properties": { "geoid": 244, "latitude": 40.102165, "longitude": -85.678689, "good url": "http:\/\/directory.occupy.net\/occupation\/us\/in\/occupy-anderson", "fetchurl": 0, "name": "Occupy Anderson IN" }, "geometry": { "type": "Point", "coordinates": [ -85.678689, 40.102165 ] } }
,
{ "type": "Feature", "id": 245, "properties": { "geoid": 245, "latitude": 34.50044, "longitude": -82.649579, "good url": "http:\/\/directory.occupy.net\/occupation\/us\/sc\/occupy-anderson-sc", "fetchurl": 0, "name": "Occupy Anderson SC" }, "geometry": { "type": "Point", "coordinates": [ -82.649579, 34.50044 ] } }
,
{ "type": "Feature", "id": 246, "properties": { "geoid": 246, "latitude": 34.8045, "longitude": -86.971279, "good url": "http:\/\/directory.occupy.net\/occupation\/us\/al\/occupy-athens-al", "fetchurl": 0, "name": "Occupy Athens AL" }, "geometry": { "type": "Point", "coordinates": [ -86.971279, 34.8045 ] } }
,
{ "type": "Feature", "id": 247, "properties": { "geoid": 247, "latitude": 43.59527, "longitude": -83.884914, "good url": "http:\/\/directory.occupy.net\/occupation\/us\/mi\/occupy-bay-city", "fetchurl": 0, "name": "Occupy Bay City" }, "geometry": { "type": "Point", "coordinates": [ -83.884914, 43.59527 ] } }
,
{ "type": "Feature", "id": 248, "properties": { "geoid": 248, "latitude": 33.958132, "longitude": -83.373255, "good url": "http:\/\/directory.occupy.net\/occupation\/us\/ga\/occupy-athens-ga", "fetchurl": 0, "name": "Occupy Athens GA" }, "geometry": { "type": "Point", "coordinates": [ -83.373255, 33.958132 ] } }
,
{ "type": "Feature", "id": 249, "properties": { "geoid": 249, "latitude": 44.632801, "longitude": -87.744202, "good url": "http:\/\/directory.occupy.net\/occupation\/us\/wi\/occupy-bay-view", "fetchurl": 0, "name": "Occupy Bay View" }, "geometry": { "type": "Point", "coordinates": [ -87.744202, 44.632801 ] } }
,
{ "type": "Feature", "id": 250, "properties": { "geoid": 250, "latitude": 39.328502, "longitude": -82.10444, "good url": "http:\/\/directory.occupy.net\/occupation\/us\/oh\/occupy-athens-oh", "fetchurl": 0, "name": "Occupy Athens OH" }, "geometry": { "type": "Point", "coordinates": [ -82.10444, 39.328502 ] } }
,
{ "type": "Feature", "id": 251, "properties": { "geoid": 251, "latitude": 44.80172, "longitude": -68.770775, "good url": "http:\/\/directory.occupy.net\/occupation\/us\/me\/occupy-bangor-me", "fetchurl": 0, "name": "Occupy Bangor ME" }, "geometry": { "type": "Point", "coordinates": [ -68.770775, 44.80172 ] } }
,
{ "type": "Feature", "id": 252, "properties": { "geoid": 252, "latitude": 32.842925, "longitude": -104.397559, "good url": "http:\/\/directory.occupy.net\/occupation\/us\/nm\/occupy-artesia", "fetchurl": 0, "name": "Occupy Artesia" }, "geometry": { "type": "Point", "coordinates": [ -104.397559, 32.842925 ] } }
,
{ "type": "Feature", "id": 253, "properties": { "geoid": 253, "latitude": 54.662802, "longitude": -5.669736, "good url": "http:\/\/directory.occupy.net\/occupation\/gb\/occupy-bangor-north-wales", "fetchurl": 0, "name": "Occupy Bangor" }, "geometry": { "type": "Point", "coordinates": [ -5.669736, 54.662802 ] } }
,
{ "type": "Feature", "id": 254, "properties": { "geoid": 254, "latitude": 40.21703, "longitude": -74.013009, "good url": "http:\/\/directory.occupy.net\/occupation\/us\/nj\/occupy-asbury-park", "fetchurl": 0, "name": "Occupy Asbury Park" }, "geometry": { "type": "Point", "coordinates": [ -74.013009, 40.21703 ] } }
,
{ "type": "Feature", "id": 255, "properties": { "geoid": 255, "latitude": 44.318036, "longitude": -69.776218, "good url": "http:\/\/directory.occupy.net\/occupation\/us\/me\/occupy-augusta-me", "fetchurl": 0, "name": "Occupy Augusta ME" }, "geometry": { "type": "Point", "coordinates": [ -69.776218, 44.318036 ] } }
,
{ "type": "Feature", "id": 256, "properties": { "geoid": 256, "latitude": 34.07537, "longitude": -84.294554, "good url": "http:\/\/directory.occupy.net\/occupation\/us\/ga\/occupy-alpharetta", "fetchurl": 0, "name": "Occupy Alpharetta" }, "geometry": { "type": "Point", "coordinates": [ -84.294554, 34.07537 ] } }
,
{ "type": "Feature", "id": 257, "properties": { "geoid": 257, "latitude": 37.766585, "longitude": -122.244739, "good url": "http:\/\/directory.occupy.net\/occupation\/us\/ca\/occupy-alameda", "fetchurl": 0, "name": "Occupy Alameda" }, "geometry": { "type": "Point", "coordinates": [ -122.244739, 37.766585 ] } }
,
{ "type": "Feature", "id": 258, "properties": { "geoid": 258, "latitude": 34.698905, "longitude": -118.144779, "good url": "http:\/\/directory.occupy.net\/occupation\/us\/ca\/occupy-antelope-valley", "fetchurl": 0, "name": "Occupy Antelope Valley" }, "geometry": { "type": "Point", "coordinates": [ -118.144779, 34.698905 ] } }
,
{ "type": "Feature", "id": 259, "properties": { "geoid": 259, "latitude": 32.89925, "longitude": -105.960323, "good url": "http:\/\/directory.occupy.net\/occupation\/us\/nm\/occupy-alamogordo", "fetchurl": 0, "name": "Occupy Alamogordo" }, "geometry": { "type": "Point", "coordinates": [ -105.960323, 32.89925 ] } }
,
{ "type": "Feature", "id": 260, "properties": { "geoid": 260, "latitude": 38.015825, "longitude": -121.819699, "good url": "http:\/\/directory.occupy.net\/occupation\/us\/ca\/occupy-antioch", "fetchurl": 0, "name": "Occupy Antioch" }, "geometry": { "type": "Point", "coordinates": [ -121.819699, 38.015825 ] } }
,
{ "type": "Feature", "id": 261, "properties": { "geoid": 261, "latitude": 42.651445, "longitude": -73.755254, "good url": "http:\/\/directory.occupy.net\/occupation\/us\/ny\/occupy-albany-ny", "fetchurl": 0, "name": "Occupy Albany NY" }, "geometry": { "type": "Point", "coordinates": [ -73.755254, 42.651445 ] } }
,
{ "type": "Feature", "id": 262, "properties": { "geoid": 262, "latitude": 42.370772, "longitude": -72.533204, "good url": "http:\/\/directory.occupy.net\/occupation\/us\/ma\/occupy-amherst", "fetchurl": 0, "name": "Occupy Amherst" }, "geometry": { "type": "Point", "coordinates": [ -72.533204, 42.370772 ] } }
,
{ "type": "Feature", "id": 263, "properties": { "geoid": 263, "latitude": 50.77813, "longitude": 6.088508, "good url": "http:\/\/directory.occupy.net\/occupation\/de\/occupy-aachen", "fetchurl": 0, "name": "Occupy Aachen" }, "geometry": { "type": "Point", "coordinates": [ 6.088508, 50.77813 ] } }
,
{ "type": "Feature", "id": 264, "properties": { "geoid": 264, "latitude": 52.373095, "longitude": 4.893305, "good url": "http:\/\/directory.occupy.net\/occupation\/nl\/occupy-amsterdam", "fetchurl": 0, "name": "Occupy Amsterdam" }, "geometry": { "type": "Point", "coordinates": [ 4.893305, 52.373095 ] } }
,
{ "type": "Feature", "id": 265, "properties": { "geoid": 265, "latitude": 56.152975, "longitude": 10.20488, "good url": "http:\/\/directory.occupy.net\/occupation\/dk\/occupy-aarhus", "fetchurl": 0, "name": "Occupy Aarhus" }, "geometry": { "type": "Point", "coordinates": [ 10.20488, 56.152975 ] } }
,
{ "type": "Feature", "id": 266, "properties": { "geoid": 266, "latitude": 42.353235, "longitude": -71.132139, "good url": "http:\/\/directory.occupy.net\/occupation\/us\/ma\/occupy-allston", "fetchurl": 0, "name": "Occupy Allston" }, "geometry": { "type": "Point", "coordinates": [ -71.132139, 42.353235 ] } }
,
{ "type": "Feature", "id": 267, "properties": { "geoid": 267, "latitude": 45.061565, "longitude": -83.445154, "good url": "http:\/\/directory.occupy.net\/occupation\/us\/mi\/occupy-alpena", "fetchurl": 0, "name": "Occupy Alpena" }, "geometry": { "type": "Point", "coordinates": [ -83.445154, 45.061565 ] } }
,
{ "type": "Feature", "id": 268, "properties": { "geoid": 268, "latitude": 41.889273, "longitude": -80.786736, "good url": "http:\/\/directory.occupy.net\/occupation\/us\/oh\/occupy-ashtabula", "fetchurl": 0, "name": "Occupy Ashtabula" }, "geometry": { "type": "Point", "coordinates": [ -80.786736, 41.889273 ] } }
,
{ "type": "Feature", "id": 269, "properties": { "geoid": 269, "latitude": 40.71455, "longitude": -74.007124, "good url": "http:\/\/directory.occupy.net\/occupation\/us\/ny\/occupy-baruch-college", "fetchurl": 0, "name": "Occupy Baruch College" }, "geometry": { "type": "Point", "coordinates": [ -74.007124, 40.71455 ] } }
,
{ "type": "Feature", "id": 270, "properties": { "geoid": 270, "latitude": 51.38503, "longitude": -2.361324, "good url": "http:\/\/directory.occupy.net\/occupation\/gb\/occupy-bath", "fetchurl": 0, "name": "Occupy Bath" }, "geometry": { "type": "Point", "coordinates": [ -2.361324, 51.38503 ] } }
,
{ "type": "Feature", "id": 271, "properties": { "geoid": 271, "latitude": 47.616787, "longitude": -65.648895, "good url": "http:\/\/directory.occupy.net\/occupation\/ca\/nb\/occupy-bathurst", "fetchurl": 0, "name": "Occupy Bathurst" }, "geometry": { "type": "Point", "coordinates": [ -65.648895, 47.616787 ] } }
,
{ "type": "Feature", "id": 272, "properties": { "geoid": 272, "latitude": 30.443345, "longitude": -91.186994, "good url": "http:\/\/directory.occupy.net\/occupation\/us\/la\/occupy-baton-rouge", "fetchurl": 0, "name": "Occupy Baton Rouge" }, "geometry": { "type": "Point", "coordinates": [ -91.186994, 30.443345 ] } }
,
{ "type": "Feature", "id": 273, "properties": { "geoid": 273, "latitude": 37.97605, "longitude": 23.73718, "good url": "http:\/\/directory.occupy.net\/occupation\/gr\/occupy-athens-vassileios", "fetchurl": 0, "name": "Occupy Athens - Vassileios" }, "geometry": { "type": "Point", "coordinates": [ 23.73718, 37.97605 ] } }
,
{ "type": "Feature", "id": 274, "properties": { "geoid": 274, "latitude": 26.2257, "longitude": 50.57795, "good url": "http:\/\/directory.occupy.net\/occupation\/bh\/occupy-bahrain", "fetchurl": 0, "name": "Occupy Bahrain" }, "geometry": { "type": "Point", "coordinates": [ 50.57795, 26.2257 ] } }
,
{ "type": "Feature", "id": 275, "properties": { "geoid": 275, "latitude": 47.626935, "longitude": -122.521004, "good url": "http:\/\/directory.occupy.net\/occupation\/us\/wa\/occupy-bainbridge-island", "fetchurl": 0, "name": "Occupy Bainbridge Island" }, "geometry": { "type": "Point", "coordinates": [ -122.521004, 47.626935 ] } }
,
{ "type": "Feature", "id": 276, "properties": { "geoid": 276, "latitude": -22.514894, "longitude": -48.635086, "good url": "http:\/\/directory.occupy.net\/occupation\/br\/sp\/occupy-baixo-augusta", "fetchurl": 0, "name": "Occupy Baixo Augusta" }, "geometry": { "type": "Point", "coordinates": [ -48.635086, -22.514894 ] } }
,
{ "type": "Feature", "id": 277, "properties": { "geoid": 277, "latitude": 35.37327, "longitude": -119.018769, "good url": "http:\/\/directory.occupy.net\/occupation\/us\/ca\/occupy-bakersfield", "fetchurl": 0, "name": "Occupy Bakersfield" }, "geometry": { "type": "Point", "coordinates": [ -119.018769, 35.37327 ] } }
,
{ "type": "Feature", "id": 278, "properties": { "geoid": 278, "latitude": 39.290585, "longitude": -76.609264, "good url": "http:\/\/directory.occupy.net\/occupation\/us\/md\/occupy-baltimore", "fetchurl": 0, "name": "Occupy Baltimore" }, "geometry": { "type": "Point", "coordinates": [ -76.609264, 39.290585 ] } }
,
{ "type": "Feature", "id": 279, "properties": { "geoid": 279, "latitude": 12.97092, "longitude": 77.60482, "good url": "http:\/\/directory.occupy.net\/occupation\/in\/occupy-bangalore", "fetchurl": 0, "name": "Occupy Bangalore" }, "geometry": { "type": "Point", "coordinates": [ 77.60482, 12.97092 ] } }
,
{ "type": "Feature", "id": 280, "properties": { "geoid": 280, "latitude": 41.669924, "longitude": -3.688995, "good url": "http:\/\/directory.occupy.net\/occupation\/es\/occupy-aranda-de-duero", "fetchurl": 0, "name": "Occupy Aranda de Duero" }, "geometry": { "type": "Point", "coordinates": [ -3.688995, 41.669924 ] } }
,
{ "type": "Feature", "id": 281, "properties": { "geoid": 281, "latitude": 33.748315, "longitude": -84.391109, "good url": "http:\/\/directory.occupy.net\/occupation\/us\/ga\/occupy-atlanta-west-end", "fetchurl": 0, "name": "Occupy Atlanta - West End" }, "geometry": { "type": "Point", "coordinates": [ -84.391109, 33.748315 ] } }
,
{ "type": "Feature", "id": 282, "properties": { "geoid": 282, "latitude": 39.362815, "longitude": -74.426524, "good url": "http:\/\/directory.occupy.net\/occupation\/us\/nj\/occupy-atlantic-city", "fetchurl": 0, "name": "Occupy Atlantic City" }, "geometry": { "type": "Point", "coordinates": [ -74.426524, 39.362815 ] } }
,
{ "type": "Feature", "id": 283, "properties": { "geoid": 283, "latitude": -36.709249, "longitude": 175.04332, "good url": "http:\/\/directory.occupy.net\/occupation\/nz\/occupy-auckland", "fetchurl": 0, "name": "Occupy Auckland" }, "geometry": { "type": "Point", "coordinates": [ 175.04332, -36.709249 ] } }
,
{ "type": "Feature", "id": 284, "properties": { "geoid": 284, "latitude": 33.47909, "longitude": -81.975309, "good url": "http:\/\/directory.occupy.net\/occupation\/us\/ga\/occupy-augusta-ga", "fetchurl": 0, "name": "Occupy Augusta GA" }, "geometry": { "type": "Point", "coordinates": [ -81.975309, 33.47909 ] } }
,
{ "type": "Feature", "id": 285, "properties": { "geoid": 285, "latitude": 36.74678, "longitude": -95.979024, "good url": "http:\/\/directory.occupy.net\/occupation\/us\/ok\/occupy-bartlesville", "fetchurl": 0, "name": "Occupy Bartlesville" }, "geometry": { "type": "Point", "coordinates": [ -95.979024, 36.74678 ] } }
,
{ "type": "Feature", "id": 286, "properties": { "geoid": 286, "latitude": 39.53894, "longitude": -76.348479, "good url": "http:\/\/directory.occupy.net\/occupation\/us\/md\/occupy-belair", "fetchurl": 0, "name": "Occupy BelAir" }, "geometry": { "type": "Point", "coordinates": [ -76.348479, 39.53894 ] } }
,
{ "type": "Feature", "id": 287, "properties": { "geoid": 287, "latitude": 40.630985, "longitude": -75.377784, "good url": "http:\/\/directory.occupy.net\/occupation\/us\/pa\/occupy-bethlehem", "fetchurl": 0, "name": "Occupy Bethlehem" }, "geometry": { "type": "Point", "coordinates": [ -75.377784, 40.630985 ] } }
,
{ "type": "Feature", "id": 288, "properties": { "geoid": 288, "latitude": 34.073485, "longitude": -118.400344, "good url": "http:\/\/directory.occupy.net\/occupation\/us\/ca\/occupy-beverly-hills", "fetchurl": 0, "name": "Occupy Beverly Hills" }, "geometry": { "type": "Point", "coordinates": [ -118.400344, 34.073485 ] } }
,
{ "type": "Feature", "id": 289, "properties": { "geoid": 289, "latitude": 43.30479, "longitude": -2.96674, "good url": "http:\/\/directory.occupy.net\/occupation\/es\/occupy-bilbao", "fetchurl": 0, "name": "Occupy Bilbao" }, "geometry": { "type": "Point", "coordinates": [ -2.96674, 43.30479 ] } }
,
{ "type": "Feature", "id": 290, "properties": { "geoid": 290, "latitude": 26.330597, "longitude": -81.800719, "good url": "http:\/\/directory.occupy.net\/occupation\/us\/fl\/occupy-bonita-springs", "fetchurl": 0, "name": "Occupy Bonita Springs" }, "geometry": { "type": "Point", "coordinates": [ -81.800719, 26.330597 ] } }
,
{ "type": "Feature", "id": 291, "properties": { "geoid": 291, "latitude": 32.677946, "longitude": -97.452588, "good url": "http:\/\/directory.occupy.net\/occupation\/us\/tx\/occupy-benbrook", "fetchurl": 0, "name": "Occupy Benbrook" }, "geometry": { "type": "Point", "coordinates": [ -97.452588, 32.677946 ] } }
,
{ "type": "Feature", "id": 292, "properties": { "geoid": 292, "latitude": 44.05766, "longitude": -121.315549, "good url": "http:\/\/directory.occupy.net\/occupation\/us\/or\/occupy-bend", "fetchurl": 0, "name": "Occupy Bend" }, "geometry": { "type": "Point", "coordinates": [ -121.315549, 44.05766 ] } }
,
{ "type": "Feature", "id": 293, "properties": { "geoid": 293, "latitude": 42.87673, "longitude": -73.198185, "good url": "http:\/\/directory.occupy.net\/occupation\/us\/vt\/occupy-bennington", "fetchurl": 0, "name": "Occupy Bennington" }, "geometry": { "type": "Point", "coordinates": [ -73.198185, 42.87673 ] } }
,
{ "type": "Feature", "id": 294, "properties": { "geoid": 294, "latitude": 37.226263, "longitude": -80.410584, "good url": "http:\/\/directory.occupy.net\/occupation\/us\/va\/occupy-blacksburg", "fetchurl": 0, "name": "Occupy Blacksburg" }, "geometry": { "type": "Point", "coordinates": [ -80.410584, 37.226263 ] } }
,
{ "type": "Feature", "id": 295, "properties": { "geoid": 295, "latitude": 39.171326, "longitude": -86.532001, "good url": "http:\/\/directory.occupy.net\/occupation\/us\/in\/occupy-bloomington", "fetchurl": 0, "name": "Occupy Bloomington" }, "geometry": { "type": "Point", "coordinates": [ -86.532001, 39.171326 ] } }
,
{ "type": "Feature", "id": 296, "properties": { "geoid": 296, "latitude": 39.16659, "longitude": -86.534244, "good url": "http:\/\/directory.occupy.net\/occupation\/us\/in\/occupy-bloomington-indiana-university", "fetchurl": 0, "name": "Occupy Bloomington - Indiana University" }, "geometry": { "type": "Point", "coordinates": [ -86.534244, 39.16659 ] } }
,
{ "type": "Feature", "id": 297, "properties": { "geoid": 297, "latitude": 33.89275, "longitude": 35.485271, "good url": "http:\/\/directory.occupy.net\/occupation\/lb\/occupy-beirut", "fetchurl": 0, "name": "Occupy Beirut" }, "geometry": { "type": "Point", "coordinates": [ 35.485271, 33.89275 ] } }
,
{ "type": "Feature", "id": 298, "properties": { "geoid": 298, "latitude": 41.75695, "longitude": -88.315774, "good url": "http:\/\/directory.occupy.net\/occupation\/us\/il\/occupy-aurora-il", "fetchurl": 0, "name": "Occupy Aurora IL" }, "geometry": { "type": "Point", "coordinates": [ -88.315774, 41.75695 ] } }
,
{ "type": "Feature", "id": 299, "properties": { "geoid": 299, "latitude": 43.66659, "longitude": -92.972333, "good url": "http:\/\/directory.occupy.net\/occupation\/us\/mn\/occupy-austin-mn", "fetchurl": 0, "name": "Occupy Austin MN" }, "geometry": { "type": "Point", "coordinates": [ -92.972333, 43.66659 ] } }
,
{ "type": "Feature", "id": 300, "properties": { "geoid": 300, "latitude": 40.668735, "longitude": -74.117489, "good url": "http:\/\/directory.occupy.net\/occupation\/us\/nj\/occupy-bayonne", "fetchurl": 0, "name": "Occupy Bayonne" }, "geometry": { "type": "Point", "coordinates": [ -74.117489, 40.668735 ] } }
,
{ "type": "Feature", "id": 301, "properties": { "geoid": 301, "latitude": 37.462488, "longitude": -122.197799, "good url": "http:\/\/directory.occupy.net\/occupation\/us\/ca\/occupy-atherton", "fetchurl": 0, "name": "Occupy Atherton" }, "geometry": { "type": "Point", "coordinates": [ -122.197799, 37.462488 ] } }
,
{ "type": "Feature", "id": 302, "properties": { "geoid": 302, "latitude": 44.389355, "longitude": -68.207424, "good url": "http:\/\/directory.occupy.net\/occupation\/us\/me\/occupy%C2%A0bar-harbor", "fetchurl": 0, "name": "Occupy Bar Harbor" }, "geometry": { "type": "Point", "coordinates": [ -68.207424, 44.389355 ] } }
,
{ "type": "Feature", "id": 303, "properties": { "geoid": 303, "latitude": 35.59522, "longitude": -82.5513, "good url": "http:\/\/directory.occupy.net\/occupation\/us\/nc\/occupy-asheville", "fetchurl": 0, "name": "Occupy Asheville" }, "geometry": { "type": "Point", "coordinates": [ -82.5513, 35.59522 ] } }
,
{ "type": "Feature", "id": 304, "properties": { "geoid": 304, "latitude": 41.39077, "longitude": 2.18029, "good url": "http:\/\/directory.occupy.net\/occupation\/es\/occupy-barcelona", "fetchurl": 0, "name": "Occupy Barcelona" }, "geometry": { "type": "Point", "coordinates": [ 2.18029, 41.39077 ] } }
,
{ "type": "Feature", "id": 305, "properties": { "geoid": 305, "latitude": 38.48069, "longitude": -82.643589, "good url": "http:\/\/directory.occupy.net\/occupation\/us\/ky\/occupy-ashland-ky", "fetchurl": 0, "name": "Occupy Ashland KY" }, "geometry": { "type": "Point", "coordinates": [ -82.643589, 38.48069 ] } }
,
{ "type": "Feature", "id": 306, "properties": { "geoid": 306, "latitude": 42.19967, "longitude": -122.717029, "good url": "http:\/\/directory.occupy.net\/occupation\/us\/or\/occupy-ashland-or", "fetchurl": 0, "name": "Occupy Ashland OR" }, "geometry": { "type": "Point", "coordinates": [ -122.717029, 42.19967 ] } }
,
{ "type": "Feature", "id": 307, "properties": { "geoid": 307, "latitude": 46.94733, "longitude": 7.444365, "good url": "http:\/\/directory.occupy.net\/occupation\/ch\/occupy-bern", "fetchurl": 0, "name": "Occupy Bern" }, "geometry": { "type": "Point", "coordinates": [ 7.444365, 46.94733 ] } }
,
{ "type": "Feature", "id": 308, "properties": { "geoid": 308, "latitude": 53.335765, "longitude": 83.789535, "good url": "http:\/\/directory.occupy.net\/occupation\/ru\/occupy-bernau", "fetchurl": 0, "name": "Occupy Bernau" }, "geometry": { "type": "Point", "coordinates": [ 83.789535, 53.335765 ] } }
,
{ "type": "Feature", "id": 309, "properties": { "geoid": 309, "latitude": 4.65637, "longitude": -74.11779, "good url": "http:\/\/directory.occupy.net\/occupation\/co\/occupy-bogota", "fetchurl": 0, "name": "Occupy Bogota" }, "geometry": { "type": "Point", "coordinates": [ -74.11779, 4.65637 ] } }
,
{ "type": "Feature", "id": 310, "properties": { "geoid": 310, "latitude": 43.60698, "longitude": -116.193409, "good url": "http:\/\/directory.occupy.net\/occupation\/us\/id\/occupy-boise", "fetchurl": 0, "name": "Occupy Boise" }, "geometry": { "type": "Point", "coordinates": [ -116.193409, 43.60698 ] } }
,
{ "type": "Feature", "id": 311, "properties": { "geoid": 311, "latitude": 41.698175, "longitude": -88.081199, "good url": "http:\/\/directory.occupy.net\/occupation\/us\/il\/occupy-bolingbrook", "fetchurl": 0, "name": "Occupy Bolingbrook" }, "geometry": { "type": "Point", "coordinates": [ -88.081199, 41.698175 ] } }
,
{ "type": "Feature", "id": 312, "properties": { "geoid": 312, "latitude": 47.610025, "longitude": -122.187849, "good url": "http:\/\/directory.occupy.net\/occupation\/us\/wa\/occupy-bellevue", "fetchurl": 0, "name": "Occupy Bellevue" }, "geometry": { "type": "Point", "coordinates": [ -122.187849, 47.610025 ] } }
,
{ "type": "Feature", "id": 313, "properties": { "geoid": 313, "latitude": 44.504835, "longitude": 11.345165, "good url": "http:\/\/directory.occupy.net\/occupation\/it\/bo\/occupy-bologna", "fetchurl": 0, "name": "Occupy Bologna" }, "geometry": { "type": "Point", "coordinates": [ 11.345165, 44.504835 ] } }
,
{ "type": "Feature", "id": 314, "properties": { "geoid": 314, "latitude": 48.75355, "longitude": -122.484329, "good url": "http:\/\/directory.occupy.net\/occupation\/us\/wa\/occupy-bellingham", "fetchurl": 0, "name": "Occupy Bellingham" }, "geometry": { "type": "Point", "coordinates": [ -122.484329, 48.75355 ] } }
,
{ "type": "Feature", "id": 315, "properties": { "geoid": 315, "latitude": 46.495002, "longitude": 11.354456, "good url": "http:\/\/directory.occupy.net\/occupation\/it\/bz\/occupy-bolzano-bozen", "fetchurl": 0, "name": "Occupy Bolzano Bozen" }, "geometry": { "type": "Point", "coordinates": [ 11.354456, 46.495002 ] } }
,
{ "type": "Feature", "id": 316, "properties": { "geoid": 316, "latitude": -19.94536, "longitude": -43.932678, "good url": "http:\/\/directory.occupy.net\/occupation\/br\/mg\/occupy-belo-horizonte", "fetchurl": 0, "name": "Occupy Belo Horizonte" }, "geometry": { "type": "Point", "coordinates": [ -43.932678, -19.94536 ] } }
,
{ "type": "Feature", "id": 317, "properties": { "geoid": 317, "latitude": 40.82549, "longitude": -75.078954, "good url": "http:\/\/directory.occupy.net\/occupation\/us\/nj\/occupy-belvidere", "fetchurl": 0, "name": "Occupy Belvidere" },